,Date,Cases,Deaths,CountyID,Town,State,Population,Latitude,Longitude
0,1/22/20,0.0,0.0,84017001,Adams,Illinois,65435,39.98815591,-91.18786813
1,1/22/20,0.0,0.0,84017003,Alexander,Illinois,5761,37.18049267,-89.32910838
2,1/22/20,0.0,0.0,84017005,Bond,Illinois,16426,38.88829622,-89.43534887
3,1/22/20,0.0,0.0,84017007,Boone,Illinois,53544,42.32359279,-88.82345779
4,1/22/20,0.0,0.0,84017009,Brown,Illinois,6578,39.96209138,-90.75068024
5,1/22/20,0.0,0.0,84017011,Bureau,Illinois,32628,41.40385234,-89.5283051
6,1/22/20,0.0,0.0,84017013,Calhoun,Illinois,4739,39.16840183,-90.66330078
7,1/22/20,0.0,0.0,84017015,Carroll,Illinois,14305,42.06823429,-89.93395545
8,1/22/20,0.0,0.0,84017017,Cass,Illinois,12147,39.96991073,-90.24734436
9,1/22/20,0.0,0.0,84017019,Champaign,Illinois,209689,40.13919438,-88.20046615
10,1/22/20,0.0,0.0,84017021,Christian,Illinois,32304,39.54581621,-89.27780482
11,1/22/20,0.0,0.0,84017023,Clark,Illinois,15441,39.33425789,-87.78705622
12,1/22/20,0.0,0.0,84017025,Clay,Illinois,13184,38.75388572,-88.48914513
13,1/22/20,0.0,0.0,84017027,Clinton,Illinois,37562,38.60704876,-89.42385254
14,1/22/20,0.0,0.0,84017029,Coles,Illinois,50621,39.51949084,-88.22358557
15,1/22/20,0.0,0.0,84017031,Cook,Illinois,5150233,41.84144849,-87.81658794
16,1/22/20,0.0,0.0,84017033,Crawford,Illinois,18667,39.0032229,-87.75954624
17,1/22/20,0.0,0.0,84017035,Cumberland,Illinois,10766,39.27432424,-88.2401158
18,1/22/20,0.0,0.0,84017037,DeKalb,Illinois,104897,41.89373302,-88.76958483
19,1/22/20,0.0,0.0,84017039,De Witt,Illinois,15638,40.17514519,-88.90959682
20,1/22/20,0.0,0.0,84017041,Douglas,Illinois,19465,39.76768052,-88.21854195
21,1/22/20,0.0,0.0,84017043,DuPage,Illinois,922921,41.85116968,-88.08642662
22,1/22/20,0.0,0.0,84017045,Edgar,Illinois,17161,39.6809186,-87.74759563
23,1/22/20,0.0,0.0,84017047,Edwards,Illinois,6395,38.41353228,-88.05720863
24,1/22/20,0.0,0.0,84017049,Effingham,Illinois,34008,39.05935711,-88.58969584
25,1/22/20,0.0,0.0,84017051,Fayette,Illinois,21336,39.00072038,-89.02452658
26,1/22/20,0.0,0.0,84017053,Ford,Illinois,12961,40.59706922,-88.22350769
27,1/22/20,0.0,0.0,84017055,Franklin,Illinois,38469,37.99189086,-88.92567818
28,1/22/20,0.0,0.0,84017057,Fulton,Illinois,34340,40.47289135,-90.20862357
29,1/22/20,0.0,0.0,84017059,Gallatin,Illinois,4828,37.76430935,-88.22953869
30,1/22/20,0.0,0.0,84017061,Greene,Illinois,12969,39.35907414,-90.388865
31,1/22/20,0.0,0.0,84017063,Grundy,Illinois,51054,41.28569601,-88.41905692
32,1/22/20,0.0,0.0,84017065,Hamilton,Illinois,8116,38.08163641,-88.53883373
33,1/22/20,0.0,0.0,84017067,Hancock,Illinois,17708,40.40423981,-91.16313899
34,1/22/20,0.0,0.0,84017069,Hardin,Illinois,3821,37.51810645,-88.26873022
35,1/22/20,0.0,0.0,84017071,Henderson,Illinois,6646,40.81908672,-90.92491462
36,1/22/20,0.0,0.0,84017073,Henry,Illinois,48913,41.3533994,-90.13296166
37,1/22/20,0.0,0.0,84017075,Iroquois,Illinois,27114,40.74717633,-87.82466784
38,1/22/20,0.0,0.0,84017077,Jackson,Illinois,56750,37.78595185,-89.38232563
39,1/22/20,0.0,0.0,84017079,Jasper,Illinois,9610,39.01054275,-88.15437049
40,1/22/20,0.0,0.0,84017081,Jefferson,Illinois,37684,38.29980057,-88.9240025
41,1/22/20,0.0,0.0,84017083,Jersey,Illinois,21773,39.08869046,-90.35393073
42,1/22/20,0.0,0.0,84017085,Jo Daviess,Illinois,21235,42.36542373,-90.21094405
43,1/22/20,0.0,0.0,84017087,Johnson,Illinois,12417,37.45939802,-88.88165419
44,1/22/20,0.0,0.0,84017089,Kane,Illinois,532403,41.93842729,-88.42861412
45,1/22/20,0.0,0.0,84017091,Kankakee,Illinois,109862,41.13746989,-87.86205334
46,1/22/20,0.0,0.0,84017093,Kendall,Illinois,128990,41.59081014,-88.42869583
47,1/22/20,0.0,0.0,84017095,Knox,Illinois,49699,40.93148779,-90.21330340000002
48,1/22/20,0.0,0.0,84017097,Lake,Illinois,696535,42.3224907,-88.00367925
49,1/22/20,0.0,0.0,84017099,LaSalle,Illinois,108669,41.34426129999999,-88.88633881
50,1/22/20,0.0,0.0,84017101,Lawrence,Illinois,15678,38.71987914,-87.72884035
51,1/22/20,0.0,0.0,84017103,Lee,Illinois,34096,41.74583951,-89.29977132
52,1/22/20,0.0,0.0,84017105,Livingston,Illinois,35648,40.89188292,-88.55784752
53,1/22/20,0.0,0.0,84017107,Logan,Illinois,28618,40.12581572,-89.36638784
54,1/22/20,0.0,0.0,84017109,McDonough,Illinois,29682,40.45674722,-90.67775541
55,1/22/20,0.0,0.0,84017111,McHenry,Illinois,307774,42.32451172,-88.45248227
56,1/22/20,0.0,0.0,84017113,McLean,Illinois,171517,40.48996987,-88.84621113
57,1/22/20,0.0,0.0,84017115,Macon,Illinois,104009,39.86064913,-88.96342505
58,1/22/20,0.0,0.0,84017117,Macoupin,Illinois,44926,39.26119767,-89.92424028
59,1/22/20,0.0,0.0,84017119,Madison,Illinois,262966,38.83042506,-89.90422563
60,1/22/20,0.0,0.0,84017121,Marion,Illinois,37205,38.64963204,-88.91899208
61,1/22/20,0.0,0.0,84017123,Marshall,Illinois,11438,41.0327901,-89.34510444
62,1/22/20,0.0,0.0,84017125,Mason,Illinois,13359,40.23917274,-89.91824452
63,1/22/20,0.0,0.0,84017127,Massac,Illinois,13772,37.22078441,-88.71036614
64,1/22/20,0.0,0.0,84017129,Menard,Illinois,12196,40.02742725,-89.80246001
65,1/22/20,0.0,0.0,84017131,Mercer,Illinois,15437,41.20596782,-90.74290052
66,1/22/20,0.0,0.0,84017133,Monroe,Illinois,34637,38.27594376,-90.17761038
67,1/22/20,0.0,0.0,84017135,Montgomery,Illinois,28414,39.23198845,-89.47809254
68,1/22/20,0.0,0.0,84017137,Morgan,Illinois,33658,39.71654544,-90.20255104
69,1/22/20,0.0,0.0,84017139,Moultrie,Illinois,14501,39.64187451,-88.62099969
70,1/22/20,0.0,0.0,84017141,Ogle,Illinois,50643,42.04165196,-89.32184679
71,1/22/20,0.0,0.0,84017143,Peoria,Illinois,179179,40.78702156,-89.76078901
72,1/22/20,0.0,0.0,84017145,Perry,Illinois,20916,38.08510853,-89.36856219
73,1/22/20,0.0,0.0,84017147,Piatt,Illinois,16344,40.01360584,-88.59319339
74,1/22/20,0.0,0.0,84017149,Pike,Illinois,15561,39.62265059,-90.8877017
75,1/22/20,0.0,0.0,84017151,Pope,Illinois,4177,37.41391284,-88.56152109
76,1/22/20,0.0,0.0,84017153,Pulaski,Illinois,5335,37.22631423,-89.13085001
77,1/22/20,0.0,0.0,84017155,Putnam,Illinois,5739,41.2013541,-89.2869272
78,1/22/20,0.0,0.0,84017157,Randolph,Illinois,31782,38.05095369,-89.82512254
79,1/22/20,0.0,0.0,84017159,Richland,Illinois,15513,38.71240969,-88.08475366
80,1/22/20,0.0,0.0,84017161,Rock Island,Illinois,141879,41.46613806,-90.57042164
81,1/22/20,0.0,0.0,84017163,St. Clair,Illinois,259686,38.46996033,-89.93063427
82,1/22/20,0.0,0.0,84017165,Saline,Illinois,23491,37.75332999,-88.54119706
83,1/22/20,0.0,0.0,84017167,Sangamon,Illinois,194672,39.75836914,-89.65872023
84,1/22/20,0.0,0.0,84017169,Schuyler,Illinois,6768,40.157179799999994,-90.61114163
85,1/22/20,0.0,0.0,84017171,Scott,Illinois,4951,39.642916899999996,-90.47814431
86,1/22/20,0.0,0.0,84017173,Shelby,Illinois,21634,39.39133527,-88.80611122
87,1/22/20,0.0,0.0,84017175,Stark,Illinois,5342,41.09309773,-89.79745866
88,1/22/20,0.0,0.0,84017177,Stephenson,Illinois,44498,42.35129217,-89.662598
89,1/22/20,0.0,0.0,84017179,Tazewell,Illinois,131803,40.50716185,-89.51404662
90,1/22/20,0.0,0.0,84017181,Union,Illinois,16653,37.47119609,-89.25548938
91,1/22/20,0.0,0.0,84017183,Vermilion,Illinois,75758,40.18417171,-87.73384359
92,1/22/20,0.0,0.0,84017185,Wabash,Illinois,11520,38.44272901,-87.84922065
93,1/22/20,0.0,0.0,84017187,Warren,Illinois,16844,40.84925021,-90.6147432
94,1/22/20,0.0,0.0,84017189,Washington,Illinois,13887,38.35309213,-89.40982703
95,1/22/20,0.0,0.0,84017191,Wayne,Illinois,16215,38.42955355,-88.42586459
96,1/22/20,0.0,0.0,84017193,White,Illinois,13537,38.08706198,-88.17657461
97,1/22/20,0.0,0.0,84017195,Whiteside,Illinois,55175,41.75509713,-89.91556058
98,1/22/20,0.0,0.0,84017197,Will,Illinois,690743,41.44619267,-87.97862712
99,1/22/20,0.0,0.0,84017199,Williamson,Illinois,66597,37.73033511,-88.92994027
100,1/22/20,0.0,0.0,84017201,Winnebago,Illinois,282572,42.33641854,-89.16085327
101,1/22/20,0.0,0.0,84017203,Woodford,Illinois,38459,40.78579374,-89.20973757
104,1/23/20,0.0,0.0,84017001,Adams,Illinois,65435,39.98815591,-91.18786813
105,1/23/20,0.0,0.0,84017003,Alexander,Illinois,5761,37.18049267,-89.32910838
106,1/23/20,0.0,0.0,84017005,Bond,Illinois,16426,38.88829622,-89.43534887
107,1/23/20,0.0,0.0,84017007,Boone,Illinois,53544,42.32359279,-88.82345779
108,1/23/20,0.0,0.0,84017009,Brown,Illinois,6578,39.96209138,-90.75068024
109,1/23/20,0.0,0.0,84017011,Bureau,Illinois,32628,41.40385234,-89.5283051
110,1/23/20,0.0,0.0,84017013,Calhoun,Illinois,4739,39.16840183,-90.66330078
111,1/23/20,0.0,0.0,84017015,Carroll,Illinois,14305,42.06823429,-89.93395545
112,1/23/20,0.0,0.0,84017017,Cass,Illinois,12147,39.96991073,-90.24734436
113,1/23/20,0.0,0.0,84017019,Champaign,Illinois,209689,40.13919438,-88.20046615
114,1/23/20,0.0,0.0,84017021,Christian,Illinois,32304,39.54581621,-89.27780482
115,1/23/20,0.0,0.0,84017023,Clark,Illinois,15441,39.33425789,-87.78705622
116,1/23/20,0.0,0.0,84017025,Clay,Illinois,13184,38.75388572,-88.48914513
117,1/23/20,0.0,0.0,84017027,Clinton,Illinois,37562,38.60704876,-89.42385254
118,1/23/20,0.0,0.0,84017029,Coles,Illinois,50621,39.51949084,-88.22358557
119,1/23/20,0.0,0.0,84017031,Cook,Illinois,5150233,41.84144849,-87.81658794
120,1/23/20,0.0,0.0,84017033,Crawford,Illinois,18667,39.0032229,-87.75954624
121,1/23/20,0.0,0.0,84017035,Cumberland,Illinois,10766,39.27432424,-88.2401158
122,1/23/20,0.0,0.0,84017037,DeKalb,Illinois,104897,41.89373302,-88.76958483
123,1/23/20,0.0,0.0,84017039,De Witt,Illinois,15638,40.17514519,-88.90959682
124,1/23/20,0.0,0.0,84017041,Douglas,Illinois,19465,39.76768052,-88.21854195
125,1/23/20,0.0,0.0,84017043,DuPage,Illinois,922921,41.85116968,-88.08642662
126,1/23/20,0.0,0.0,84017045,Edgar,Illinois,17161,39.6809186,-87.74759563
127,1/23/20,0.0,0.0,84017047,Edwards,Illinois,6395,38.41353228,-88.05720863
128,1/23/20,0.0,0.0,84017049,Effingham,Illinois,34008,39.05935711,-88.58969584
129,1/23/20,0.0,0.0,84017051,Fayette,Illinois,21336,39.00072038,-89.02452658
130,1/23/20,0.0,0.0,84017053,Ford,Illinois,12961,40.59706922,-88.22350769
131,1/23/20,0.0,0.0,84017055,Franklin,Illinois,38469,37.99189086,-88.92567818
132,1/23/20,0.0,0.0,84017057,Fulton,Illinois,34340,40.47289135,-90.20862357
133,1/23/20,0.0,0.0,84017059,Gallatin,Illinois,4828,37.76430935,-88.22953869
134,1/23/20,0.0,0.0,84017061,Greene,Illinois,12969,39.35907414,-90.388865
135,1/23/20,0.0,0.0,84017063,Grundy,Illinois,51054,41.28569601,-88.41905692
136,1/23/20,0.0,0.0,84017065,Hamilton,Illinois,8116,38.08163641,-88.53883373
137,1/23/20,0.0,0.0,84017067,Hancock,Illinois,17708,40.40423981,-91.16313899
138,1/23/20,0.0,0.0,84017069,Hardin,Illinois,3821,37.51810645,-88.26873022
139,1/23/20,0.0,0.0,84017071,Henderson,Illinois,6646,40.81908672,-90.92491462
140,1/23/20,0.0,0.0,84017073,Henry,Illinois,48913,41.3533994,-90.13296166
141,1/23/20,0.0,0.0,84017075,Iroquois,Illinois,27114,40.74717633,-87.82466784
142,1/23/20,0.0,0.0,84017077,Jackson,Illinois,56750,37.78595185,-89.38232563
143,1/23/20,0.0,0.0,84017079,Jasper,Illinois,9610,39.01054275,-88.15437049
144,1/23/20,0.0,0.0,84017081,Jefferson,Illinois,37684,38.29980057,-88.9240025
145,1/23/20,0.0,0.0,84017083,Jersey,Illinois,21773,39.08869046,-90.35393073
146,1/23/20,0.0,0.0,84017085,Jo Daviess,Illinois,21235,42.36542373,-90.21094405
147,1/23/20,0.0,0.0,84017087,Johnson,Illinois,12417,37.45939802,-88.88165419
148,1/23/20,0.0,0.0,84017089,Kane,Illinois,532403,41.93842729,-88.42861412
149,1/23/20,0.0,0.0,84017091,Kankakee,Illinois,109862,41.13746989,-87.86205334
150,1/23/20,0.0,0.0,84017093,Kendall,Illinois,128990,41.59081014,-88.42869583
151,1/23/20,0.0,0.0,84017095,Knox,Illinois,49699,40.93148779,-90.21330340000002
152,1/23/20,0.0,0.0,84017097,Lake,Illinois,696535,42.3224907,-88.00367925
153,1/23/20,0.0,0.0,84017099,LaSalle,Illinois,108669,41.34426129999999,-88.88633881
154,1/23/20,0.0,0.0,84017101,Lawrence,Illinois,15678,38.71987914,-87.72884035
155,1/23/20,0.0,0.0,84017103,Lee,Illinois,34096,41.74583951,-89.29977132
156,1/23/20,0.0,0.0,84017105,Livingston,Illinois,35648,40.89188292,-88.55784752
157,1/23/20,0.0,0.0,84017107,Logan,Illinois,28618,40.12581572,-89.36638784
158,1/23/20,0.0,0.0,84017109,McDonough,Illinois,29682,40.45674722,-90.67775541
159,1/23/20,0.0,0.0,84017111,McHenry,Illinois,307774,42.32451172,-88.45248227
160,1/23/20,0.0,0.0,84017113,McLean,Illinois,171517,40.48996987,-88.84621113
161,1/23/20,0.0,0.0,84017115,Macon,Illinois,104009,39.86064913,-88.96342505
162,1/23/20,0.0,0.0,84017117,Macoupin,Illinois,44926,39.26119767,-89.92424028
163,1/23/20,0.0,0.0,84017119,Madison,Illinois,262966,38.83042506,-89.90422563
164,1/23/20,0.0,0.0,84017121,Marion,Illinois,37205,38.64963204,-88.91899208
165,1/23/20,0.0,0.0,84017123,Marshall,Illinois,11438,41.0327901,-89.34510444
166,1/23/20,0.0,0.0,84017125,Mason,Illinois,13359,40.23917274,-89.91824452
167,1/23/20,0.0,0.0,84017127,Massac,Illinois,13772,37.22078441,-88.71036614
168,1/23/20,0.0,0.0,84017129,Menard,Illinois,12196,40.02742725,-89.80246001
169,1/23/20,0.0,0.0,84017131,Mercer,Illinois,15437,41.20596782,-90.74290052
170,1/23/20,0.0,0.0,84017133,Monroe,Illinois,34637,38.27594376,-90.17761038
171,1/23/20,0.0,0.0,84017135,Montgomery,Illinois,28414,39.23198845,-89.47809254
172,1/23/20,0.0,0.0,84017137,Morgan,Illinois,33658,39.71654544,-90.20255104
173,1/23/20,0.0,0.0,84017139,Moultrie,Illinois,14501,39.64187451,-88.62099969
174,1/23/20,0.0,0.0,84017141,Ogle,Illinois,50643,42.04165196,-89.32184679
175,1/23/20,0.0,0.0,84017143,Peoria,Illinois,179179,40.78702156,-89.76078901
176,1/23/20,0.0,0.0,84017145,Perry,Illinois,20916,38.08510853,-89.36856219
177,1/23/20,0.0,0.0,84017147,Piatt,Illinois,16344,40.01360584,-88.59319339
178,1/23/20,0.0,0.0,84017149,Pike,Illinois,15561,39.62265059,-90.8877017
179,1/23/20,0.0,0.0,84017151,Pope,Illinois,4177,37.41391284,-88.56152109
180,1/23/20,0.0,0.0,84017153,Pulaski,Illinois,5335,37.22631423,-89.13085001
181,1/23/20,0.0,0.0,84017155,Putnam,Illinois,5739,41.2013541,-89.2869272
182,1/23/20,0.0,0.0,84017157,Randolph,Illinois,31782,38.05095369,-89.82512254
183,1/23/20,0.0,0.0,84017159,Richland,Illinois,15513,38.71240969,-88.08475366
184,1/23/20,0.0,0.0,84017161,Rock Island,Illinois,141879,41.46613806,-90.57042164
185,1/23/20,0.0,0.0,84017163,St. Clair,Illinois,259686,38.46996033,-89.93063427
186,1/23/20,0.0,0.0,84017165,Saline,Illinois,23491,37.75332999,-88.54119706
187,1/23/20,0.0,0.0,84017167,Sangamon,Illinois,194672,39.75836914,-89.65872023
188,1/23/20,0.0,0.0,84017169,Schuyler,Illinois,6768,40.157179799999994,-90.61114163
189,1/23/20,0.0,0.0,84017171,Scott,Illinois,4951,39.642916899999996,-90.47814431
190,1/23/20,0.0,0.0,84017173,Shelby,Illinois,21634,39.39133527,-88.80611122
191,1/23/20,0.0,0.0,84017175,Stark,Illinois,5342,41.09309773,-89.79745866
192,1/23/20,0.0,0.0,84017177,Stephenson,Illinois,44498,42.35129217,-89.662598
193,1/23/20,0.0,0.0,84017179,Tazewell,Illinois,131803,40.50716185,-89.51404662
194,1/23/20,0.0,0.0,84017181,Union,Illinois,16653,37.47119609,-89.25548938
195,1/23/20,0.0,0.0,84017183,Vermilion,Illinois,75758,40.18417171,-87.73384359
196,1/23/20,0.0,0.0,84017185,Wabash,Illinois,11520,38.44272901,-87.84922065
197,1/23/20,0.0,0.0,84017187,Warren,Illinois,16844,40.84925021,-90.6147432
198,1/23/20,0.0,0.0,84017189,Washington,Illinois,13887,38.35309213,-89.40982703
199,1/23/20,0.0,0.0,84017191,Wayne,Illinois,16215,38.42955355,-88.42586459
200,1/23/20,0.0,0.0,84017193,White,Illinois,13537,38.08706198,-88.17657461
201,1/23/20,0.0,0.0,84017195,Whiteside,Illinois,55175,41.75509713,-89.91556058
202,1/23/20,0.0,0.0,84017197,Will,Illinois,690743,41.44619267,-87.97862712
203,1/23/20,0.0,0.0,84017199,Williamson,Illinois,66597,37.73033511,-88.92994027
204,1/23/20,0.0,0.0,84017201,Winnebago,Illinois,282572,42.33641854,-89.16085327
205,1/23/20,0.0,0.0,84017203,Woodford,Illinois,38459,40.78579374,-89.20973757
208,1/24/20,0.0,0.0,84017001,Adams,Illinois,65435,39.98815591,-91.18786813
209,1/24/20,0.0,0.0,84017003,Alexander,Illinois,5761,37.18049267,-89.32910838
210,1/24/20,0.0,0.0,84017005,Bond,Illinois,16426,38.88829622,-89.43534887
211,1/24/20,0.0,0.0,84017007,Boone,Illinois,53544,42.32359279,-88.82345779
212,1/24/20,0.0,0.0,84017009,Brown,Illinois,6578,39.96209138,-90.75068024
213,1/24/20,0.0,0.0,84017011,Bureau,Illinois,32628,41.40385234,-89.5283051
214,1/24/20,0.0,0.0,84017013,Calhoun,Illinois,4739,39.16840183,-90.66330078
215,1/24/20,0.0,0.0,84017015,Carroll,Illinois,14305,42.06823429,-89.93395545
216,1/24/20,0.0,0.0,84017017,Cass,Illinois,12147,39.96991073,-90.24734436
217,1/24/20,0.0,0.0,84017019,Champaign,Illinois,209689,40.13919438,-88.20046615
218,1/24/20,0.0,0.0,84017021,Christian,Illinois,32304,39.54581621,-89.27780482
219,1/24/20,0.0,0.0,84017023,Clark,Illinois,15441,39.33425789,-87.78705622
220,1/24/20,0.0,0.0,84017025,Clay,Illinois,13184,38.75388572,-88.48914513
221,1/24/20,0.0,0.0,84017027,Clinton,Illinois,37562,38.60704876,-89.42385254
222,1/24/20,0.0,0.0,84017029,Coles,Illinois,50621,39.51949084,-88.22358557
223,1/24/20,1.0,0.0,84017031,Cook,Illinois,5150233,41.84144849,-87.81658794
224,1/24/20,0.0,0.0,84017033,Crawford,Illinois,18667,39.0032229,-87.75954624
225,1/24/20,0.0,0.0,84017035,Cumberland,Illinois,10766,39.27432424,-88.2401158
226,1/24/20,0.0,0.0,84017037,DeKalb,Illinois,104897,41.89373302,-88.76958483
227,1/24/20,0.0,0.0,84017039,De Witt,Illinois,15638,40.17514519,-88.90959682
228,1/24/20,0.0,0.0,84017041,Douglas,Illinois,19465,39.76768052,-88.21854195
229,1/24/20,0.0,0.0,84017043,DuPage,Illinois,922921,41.85116968,-88.08642662
230,1/24/20,0.0,0.0,84017045,Edgar,Illinois,17161,39.6809186,-87.74759563
231,1/24/20,0.0,0.0,84017047,Edwards,Illinois,6395,38.41353228,-88.05720863
232,1/24/20,0.0,0.0,84017049,Effingham,Illinois,34008,39.05935711,-88.58969584
233,1/24/20,0.0,0.0,84017051,Fayette,Illinois,21336,39.00072038,-89.02452658
234,1/24/20,0.0,0.0,84017053,Ford,Illinois,12961,40.59706922,-88.22350769
235,1/24/20,0.0,0.0,84017055,Franklin,Illinois,38469,37.99189086,-88.92567818
236,1/24/20,0.0,0.0,84017057,Fulton,Illinois,34340,40.47289135,-90.20862357
237,1/24/20,0.0,0.0,84017059,Gallatin,Illinois,4828,37.76430935,-88.22953869
238,1/24/20,0.0,0.0,84017061,Greene,Illinois,12969,39.35907414,-90.388865
239,1/24/20,0.0,0.0,84017063,Grundy,Illinois,51054,41.28569601,-88.41905692
240,1/24/20,0.0,0.0,84017065,Hamilton,Illinois,8116,38.08163641,-88.53883373
241,1/24/20,0.0,0.0,84017067,Hancock,Illinois,17708,40.40423981,-91.16313899
242,1/24/20,0.0,0.0,84017069,Hardin,Illinois,3821,37.51810645,-88.26873022
243,1/24/20,0.0,0.0,84017071,Henderson,Illinois,6646,40.81908672,-90.92491462
244,1/24/20,0.0,0.0,84017073,Henry,Illinois,48913,41.3533994,-90.13296166
245,1/24/20,0.0,0.0,84017075,Iroquois,Illinois,27114,40.74717633,-87.82466784
246,1/24/20,0.0,0.0,84017077,Jackson,Illinois,56750,37.78595185,-89.38232563
247,1/24/20,0.0,0.0,84017079,Jasper,Illinois,9610,39.01054275,-88.15437049
248,1/24/20,0.0,0.0,84017081,Jefferson,Illinois,37684,38.29980057,-88.9240025
249,1/24/20,0.0,0.0,84017083,Jersey,Illinois,21773,39.08869046,-90.35393073
250,1/24/20,0.0,0.0,84017085,Jo Daviess,Illinois,21235,42.36542373,-90.21094405
251,1/24/20,0.0,0.0,84017087,Johnson,Illinois,12417,37.45939802,-88.88165419
252,1/24/20,0.0,0.0,84017089,Kane,Illinois,532403,41.93842729,-88.42861412
253,1/24/20,0.0,0.0,84017091,Kankakee,Illinois,109862,41.13746989,-87.86205334
254,1/24/20,0.0,0.0,84017093,Kendall,Illinois,128990,41.59081014,-88.42869583
255,1/24/20,0.0,0.0,84017095,Knox,Illinois,49699,40.93148779,-90.21330340000002
256,1/24/20,0.0,0.0,84017097,Lake,Illinois,696535,42.3224907,-88.00367925
257,1/24/20,0.0,0.0,84017099,LaSalle,Illinois,108669,41.34426129999999,-88.88633881
258,1/24/20,0.0,0.0,84017101,Lawrence,Illinois,15678,38.71987914,-87.72884035
259,1/24/20,0.0,0.0,84017103,Lee,Illinois,34096,41.74583951,-89.29977132
260,1/24/20,0.0,0.0,84017105,Livingston,Illinois,35648,40.89188292,-88.55784752
261,1/24/20,0.0,0.0,84017107,Logan,Illinois,28618,40.12581572,-89.36638784
262,1/24/20,0.0,0.0,84017109,McDonough,Illinois,29682,40.45674722,-90.67775541
263,1/24/20,0.0,0.0,84017111,McHenry,Illinois,307774,42.32451172,-88.45248227
264,1/24/20,0.0,0.0,84017113,McLean,Illinois,171517,40.48996987,-88.84621113
265,1/24/20,0.0,0.0,84017115,Macon,Illinois,104009,39.86064913,-88.96342505
266,1/24/20,0.0,0.0,84017117,Macoupin,Illinois,44926,39.26119767,-89.92424028
267,1/24/20,0.0,0.0,84017119,Madison,Illinois,262966,38.83042506,-89.90422563
268,1/24/20,0.0,0.0,84017121,Marion,Illinois,37205,38.64963204,-88.91899208
269,1/24/20,0.0,0.0,84017123,Marshall,Illinois,11438,41.0327901,-89.34510444
270,1/24/20,0.0,0.0,84017125,Mason,Illinois,13359,40.23917274,-89.91824452
271,1/24/20,0.0,0.0,84017127,Massac,Illinois,13772,37.22078441,-88.71036614
272,1/24/20,0.0,0.0,84017129,Menard,Illinois,12196,40.02742725,-89.80246001
273,1/24/20,0.0,0.0,84017131,Mercer,Illinois,15437,41.20596782,-90.74290052
274,1/24/20,0.0,0.0,84017133,Monroe,Illinois,34637,38.27594376,-90.17761038
275,1/24/20,0.0,0.0,84017135,Montgomery,Illinois,28414,39.23198845,-89.47809254
276,1/24/20,0.0,0.0,84017137,Morgan,Illinois,33658,39.71654544,-90.20255104
277,1/24/20,0.0,0.0,84017139,Moultrie,Illinois,14501,39.64187451,-88.62099969
278,1/24/20,0.0,0.0,84017141,Ogle,Illinois,50643,42.04165196,-89.32184679
279,1/24/20,0.0,0.0,84017143,Peoria,Illinois,179179,40.78702156,-89.76078901
280,1/24/20,0.0,0.0,84017145,Perry,Illinois,20916,38.08510853,-89.36856219
281,1/24/20,0.0,0.0,84017147,Piatt,Illinois,16344,40.01360584,-88.59319339
282,1/24/20,0.0,0.0,84017149,Pike,Illinois,15561,39.62265059,-90.8877017
283,1/24/20,0.0,0.0,84017151,Pope,Illinois,4177,37.41391284,-88.56152109
284,1/24/20,0.0,0.0,84017153,Pulaski,Illinois,5335,37.22631423,-89.13085001
285,1/24/20,0.0,0.0,84017155,Putnam,Illinois,5739,41.2013541,-89.2869272
286,1/24/20,0.0,0.0,84017157,Randolph,Illinois,31782,38.05095369,-89.82512254
287,1/24/20,0.0,0.0,84017159,Richland,Illinois,15513,38.71240969,-88.08475366
288,1/24/20,0.0,0.0,84017161,Rock Island,Illinois,141879,41.46613806,-90.57042164
289,1/24/20,0.0,0.0,84017163,St. Clair,Illinois,259686,38.46996033,-89.93063427
290,1/24/20,0.0,0.0,84017165,Saline,Illinois,23491,37.75332999,-88.54119706
291,1/24/20,0.0,0.0,84017167,Sangamon,Illinois,194672,39.75836914,-89.65872023
292,1/24/20,0.0,0.0,84017169,Schuyler,Illinois,6768,40.157179799999994,-90.61114163
293,1/24/20,0.0,0.0,84017171,Scott,Illinois,4951,39.642916899999996,-90.47814431
294,1/24/20,0.0,0.0,84017173,Shelby,Illinois,21634,39.39133527,-88.80611122
295,1/24/20,0.0,0.0,84017175,Stark,Illinois,5342,41.09309773,-89.79745866
296,1/24/20,0.0,0.0,84017177,Stephenson,Illinois,44498,42.35129217,-89.662598
297,1/24/20,0.0,0.0,84017179,Tazewell,Illinois,131803,40.50716185,-89.51404662
298,1/24/20,0.0,0.0,84017181,Union,Illinois,16653,37.47119609,-89.25548938
299,1/24/20,0.0,0.0,84017183,Vermilion,Illinois,75758,40.18417171,-87.73384359
300,1/24/20,0.0,0.0,84017185,Wabash,Illinois,11520,38.44272901,-87.84922065
301,1/24/20,0.0,0.0,84017187,Warren,Illinois,16844,40.84925021,-90.6147432
302,1/24/20,0.0,0.0,84017189,Washington,Illinois,13887,38.35309213,-89.40982703
303,1/24/20,0.0,0.0,84017191,Wayne,Illinois,16215,38.42955355,-88.42586459
304,1/24/20,0.0,0.0,84017193,White,Illinois,13537,38.08706198,-88.17657461
305,1/24/20,0.0,0.0,84017195,Whiteside,Illinois,55175,41.75509713,-89.91556058
306,1/24/20,0.0,0.0,84017197,Will,Illinois,690743,41.44619267,-87.97862712
307,1/24/20,0.0,0.0,84017199,Williamson,Illinois,66597,37.73033511,-88.92994027
308,1/24/20,0.0,0.0,84017201,Winnebago,Illinois,282572,42.33641854,-89.16085327
309,1/24/20,0.0,0.0,84017203,Woodford,Illinois,38459,40.78579374,-89.20973757
312,1/25/20,0.0,0.0,84017001,Adams,Illinois,65435,39.98815591,-91.18786813
313,1/25/20,0.0,0.0,84017003,Alexander,Illinois,5761,37.18049267,-89.32910838
314,1/25/20,0.0,0.0,84017005,Bond,Illinois,16426,38.88829622,-89.43534887
315,1/25/20,0.0,0.0,84017007,Boone,Illinois,53544,42.32359279,-88.82345779
316,1/25/20,0.0,0.0,84017009,Brown,Illinois,6578,39.96209138,-90.75068024
317,1/25/20,0.0,0.0,84017011,Bureau,Illinois,32628,41.40385234,-89.5283051
318,1/25/20,0.0,0.0,84017013,Calhoun,Illinois,4739,39.16840183,-90.66330078
319,1/25/20,0.0,0.0,84017015,Carroll,Illinois,14305,42.06823429,-89.93395545
320,1/25/20,0.0,0.0,84017017,Cass,Illinois,12147,39.96991073,-90.24734436
321,1/25/20,0.0,0.0,84017019,Champaign,Illinois,209689,40.13919438,-88.20046615
322,1/25/20,0.0,0.0,84017021,Christian,Illinois,32304,39.54581621,-89.27780482
323,1/25/20,0.0,0.0,84017023,Clark,Illinois,15441,39.33425789,-87.78705622
324,1/25/20,0.0,0.0,84017025,Clay,Illinois,13184,38.75388572,-88.48914513
325,1/25/20,0.0,0.0,84017027,Clinton,Illinois,37562,38.60704876,-89.42385254
326,1/25/20,0.0,0.0,84017029,Coles,Illinois,50621,39.51949084,-88.22358557
327,1/25/20,0.0,0.0,84017031,Cook,Illinois,5150233,41.84144849,-87.81658794
328,1/25/20,0.0,0.0,84017033,Crawford,Illinois,18667,39.0032229,-87.75954624
329,1/25/20,0.0,0.0,84017035,Cumberland,Illinois,10766,39.27432424,-88.2401158
330,1/25/20,0.0,0.0,84017037,DeKalb,Illinois,104897,41.89373302,-88.76958483
331,1/25/20,0.0,0.0,84017039,De Witt,Illinois,15638,40.17514519,-88.90959682
332,1/25/20,0.0,0.0,84017041,Douglas,Illinois,19465,39.76768052,-88.21854195
333,1/25/20,0.0,0.0,84017043,DuPage,Illinois,922921,41.85116968,-88.08642662
334,1/25/20,0.0,0.0,84017045,Edgar,Illinois,17161,39.6809186,-87.74759563
335,1/25/20,0.0,0.0,84017047,Edwards,Illinois,6395,38.41353228,-88.05720863
336,1/25/20,0.0,0.0,84017049,Effingham,Illinois,34008,39.05935711,-88.58969584
337,1/25/20,0.0,0.0,84017051,Fayette,Illinois,21336,39.00072038,-89.02452658
338,1/25/20,0.0,0.0,84017053,Ford,Illinois,12961,40.59706922,-88.22350769
339,1/25/20,0.0,0.0,84017055,Franklin,Illinois,38469,37.99189086,-88.92567818
340,1/25/20,0.0,0.0,84017057,Fulton,Illinois,34340,40.47289135,-90.20862357
341,1/25/20,0.0,0.0,84017059,Gallatin,Illinois,4828,37.76430935,-88.22953869
342,1/25/20,0.0,0.0,84017061,Greene,Illinois,12969,39.35907414,-90.388865
343,1/25/20,0.0,0.0,84017063,Grundy,Illinois,51054,41.28569601,-88.41905692
344,1/25/20,0.0,0.0,84017065,Hamilton,Illinois,8116,38.08163641,-88.53883373
345,1/25/20,0.0,0.0,84017067,Hancock,Illinois,17708,40.40423981,-91.16313899
346,1/25/20,0.0,0.0,84017069,Hardin,Illinois,3821,37.51810645,-88.26873022
347,1/25/20,0.0,0.0,84017071,Henderson,Illinois,6646,40.81908672,-90.92491462
348,1/25/20,0.0,0.0,84017073,Henry,Illinois,48913,41.3533994,-90.13296166
349,1/25/20,0.0,0.0,84017075,Iroquois,Illinois,27114,40.74717633,-87.82466784
350,1/25/20,0.0,0.0,84017077,Jackson,Illinois,56750,37.78595185,-89.38232563
351,1/25/20,0.0,0.0,84017079,Jasper,Illinois,9610,39.01054275,-88.15437049
352,1/25/20,0.0,0.0,84017081,Jefferson,Illinois,37684,38.29980057,-88.9240025
353,1/25/20,0.0,0.0,84017083,Jersey,Illinois,21773,39.08869046,-90.35393073
354,1/25/20,0.0,0.0,84017085,Jo Daviess,Illinois,21235,42.36542373,-90.21094405
355,1/25/20,0.0,0.0,84017087,Johnson,Illinois,12417,37.45939802,-88.88165419
356,1/25/20,0.0,0.0,84017089,Kane,Illinois,532403,41.93842729,-88.42861412
357,1/25/20,0.0,0.0,84017091,Kankakee,Illinois,109862,41.13746989,-87.86205334
358,1/25/20,0.0,0.0,84017093,Kendall,Illinois,128990,41.59081014,-88.42869583
359,1/25/20,0.0,0.0,84017095,Knox,Illinois,49699,40.93148779,-90.21330340000002
360,1/25/20,0.0,0.0,84017097,Lake,Illinois,696535,42.3224907,-88.00367925
361,1/25/20,0.0,0.0,84017099,LaSalle,Illinois,108669,41.34426129999999,-88.88633881
362,1/25/20,0.0,0.0,84017101,Lawrence,Illinois,15678,38.71987914,-87.72884035
363,1/25/20,0.0,0.0,84017103,Lee,Illinois,34096,41.74583951,-89.29977132
364,1/25/20,0.0,0.0,84017105,Livingston,Illinois,35648,40.89188292,-88.55784752
365,1/25/20,0.0,0.0,84017107,Logan,Illinois,28618,40.12581572,-89.36638784
366,1/25/20,0.0,0.0,84017109,McDonough,Illinois,29682,40.45674722,-90.67775541
367,1/25/20,0.0,0.0,84017111,McHenry,Illinois,307774,42.32451172,-88.45248227
368,1/25/20,0.0,0.0,84017113,McLean,Illinois,171517,40.48996987,-88.84621113
369,1/25/20,0.0,0.0,84017115,Macon,Illinois,104009,39.86064913,-88.96342505
370,1/25/20,0.0,0.0,84017117,Macoupin,Illinois,44926,39.26119767,-89.92424028
371,1/25/20,0.0,0.0,84017119,Madison,Illinois,262966,38.83042506,-89.90422563
372,1/25/20,0.0,0.0,84017121,Marion,Illinois,37205,38.64963204,-88.91899208
373,1/25/20,0.0,0.0,84017123,Marshall,Illinois,11438,41.0327901,-89.34510444
374,1/25/20,0.0,0.0,84017125,Mason,Illinois,13359,40.23917274,-89.91824452
375,1/25/20,0.0,0.0,84017127,Massac,Illinois,13772,37.22078441,-88.71036614
376,1/25/20,0.0,0.0,84017129,Menard,Illinois,12196,40.02742725,-89.80246001
377,1/25/20,0.0,0.0,84017131,Mercer,Illinois,15437,41.20596782,-90.74290052
378,1/25/20,0.0,0.0,84017133,Monroe,Illinois,34637,38.27594376,-90.17761038
379,1/25/20,0.0,0.0,84017135,Montgomery,Illinois,28414,39.23198845,-89.47809254
380,1/25/20,0.0,0.0,84017137,Morgan,Illinois,33658,39.71654544,-90.20255104
381,1/25/20,0.0,0.0,84017139,Moultrie,Illinois,14501,39.64187451,-88.62099969
382,1/25/20,0.0,0.0,84017141,Ogle,Illinois,50643,42.04165196,-89.32184679
383,1/25/20,0.0,0.0,84017143,Peoria,Illinois,179179,40.78702156,-89.76078901
384,1/25/20,0.0,0.0,84017145,Perry,Illinois,20916,38.08510853,-89.36856219
385,1/25/20,0.0,0.0,84017147,Piatt,Illinois,16344,40.01360584,-88.59319339
386,1/25/20,0.0,0.0,84017149,Pike,Illinois,15561,39.62265059,-90.8877017
387,1/25/20,0.0,0.0,84017151,Pope,Illinois,4177,37.41391284,-88.56152109
388,1/25/20,0.0,0.0,84017153,Pulaski,Illinois,5335,37.22631423,-89.13085001
389,1/25/20,0.0,0.0,84017155,Putnam,Illinois,5739,41.2013541,-89.2869272
390,1/25/20,0.0,0.0,84017157,Randolph,Illinois,31782,38.05095369,-89.82512254
391,1/25/20,0.0,0.0,84017159,Richland,Illinois,15513,38.71240969,-88.08475366
392,1/25/20,0.0,0.0,84017161,Rock Island,Illinois,141879,41.46613806,-90.57042164
393,1/25/20,0.0,0.0,84017163,St. Clair,Illinois,259686,38.46996033,-89.93063427
394,1/25/20,0.0,0.0,84017165,Saline,Illinois,23491,37.75332999,-88.54119706
395,1/25/20,0.0,0.0,84017167,Sangamon,Illinois,194672,39.75836914,-89.65872023
396,1/25/20,0.0,0.0,84017169,Schuyler,Illinois,6768,40.157179799999994,-90.61114163
397,1/25/20,0.0,0.0,84017171,Scott,Illinois,4951,39.642916899999996,-90.47814431
398,1/25/20,0.0,0.0,84017173,Shelby,Illinois,21634,39.39133527,-88.80611122
399,1/25/20,0.0,0.0,84017175,Stark,Illinois,5342,41.09309773,-89.79745866
400,1/25/20,0.0,0.0,84017177,Stephenson,Illinois,44498,42.35129217,-89.662598
401,1/25/20,0.0,0.0,84017179,Tazewell,Illinois,131803,40.50716185,-89.51404662
402,1/25/20,0.0,0.0,84017181,Union,Illinois,16653,37.47119609,-89.25548938
403,1/25/20,0.0,0.0,84017183,Vermilion,Illinois,75758,40.18417171,-87.73384359
404,1/25/20,0.0,0.0,84017185,Wabash,Illinois,11520,38.44272901,-87.84922065
405,1/25/20,0.0,0.0,84017187,Warren,Illinois,16844,40.84925021,-90.6147432
406,1/25/20,0.0,0.0,84017189,Washington,Illinois,13887,38.35309213,-89.40982703
407,1/25/20,0.0,0.0,84017191,Wayne,Illinois,16215,38.42955355,-88.42586459
408,1/25/20,0.0,0.0,84017193,White,Illinois,13537,38.08706198,-88.17657461
409,1/25/20,0.0,0.0,84017195,Whiteside,Illinois,55175,41.75509713,-89.91556058
410,1/25/20,0.0,0.0,84017197,Will,Illinois,690743,41.44619267,-87.97862712
411,1/25/20,0.0,0.0,84017199,Williamson,Illinois,66597,37.73033511,-88.92994027
412,1/25/20,0.0,0.0,84017201,Winnebago,Illinois,282572,42.33641854,-89.16085327
413,1/25/20,0.0,0.0,84017203,Woodford,Illinois,38459,40.78579374,-89.20973757
416,1/26/20,0.0,0.0,84017001,Adams,Illinois,65435,39.98815591,-91.18786813
417,1/26/20,0.0,0.0,84017003,Alexander,Illinois,5761,37.18049267,-89.32910838
418,1/26/20,0.0,0.0,84017005,Bond,Illinois,16426,38.88829622,-89.43534887
419,1/26/20,0.0,0.0,84017007,Boone,Illinois,53544,42.32359279,-88.82345779
420,1/26/20,0.0,0.0,84017009,Brown,Illinois,6578,39.96209138,-90.75068024
421,1/26/20,0.0,0.0,84017011,Bureau,Illinois,32628,41.40385234,-89.5283051
422,1/26/20,0.0,0.0,84017013,Calhoun,Illinois,4739,39.16840183,-90.66330078
423,1/26/20,0.0,0.0,84017015,Carroll,Illinois,14305,42.06823429,-89.93395545
424,1/26/20,0.0,0.0,84017017,Cass,Illinois,12147,39.96991073,-90.24734436
425,1/26/20,0.0,0.0,84017019,Champaign,Illinois,209689,40.13919438,-88.20046615
426,1/26/20,0.0,0.0,84017021,Christian,Illinois,32304,39.54581621,-89.27780482
427,1/26/20,0.0,0.0,84017023,Clark,Illinois,15441,39.33425789,-87.78705622
428,1/26/20,0.0,0.0,84017025,Clay,Illinois,13184,38.75388572,-88.48914513
429,1/26/20,0.0,0.0,84017027,Clinton,Illinois,37562,38.60704876,-89.42385254
430,1/26/20,0.0,0.0,84017029,Coles,Illinois,50621,39.51949084,-88.22358557
431,1/26/20,0.0,0.0,84017031,Cook,Illinois,5150233,41.84144849,-87.81658794
432,1/26/20,0.0,0.0,84017033,Crawford,Illinois,18667,39.0032229,-87.75954624
433,1/26/20,0.0,0.0,84017035,Cumberland,Illinois,10766,39.27432424,-88.2401158
434,1/26/20,0.0,0.0,84017037,DeKalb,Illinois,104897,41.89373302,-88.76958483
435,1/26/20,0.0,0.0,84017039,De Witt,Illinois,15638,40.17514519,-88.90959682
436,1/26/20,0.0,0.0,84017041,Douglas,Illinois,19465,39.76768052,-88.21854195
437,1/26/20,0.0,0.0,84017043,DuPage,Illinois,922921,41.85116968,-88.08642662
438,1/26/20,0.0,0.0,84017045,Edgar,Illinois,17161,39.6809186,-87.74759563
439,1/26/20,0.0,0.0,84017047,Edwards,Illinois,6395,38.41353228,-88.05720863
440,1/26/20,0.0,0.0,84017049,Effingham,Illinois,34008,39.05935711,-88.58969584
441,1/26/20,0.0,0.0,84017051,Fayette,Illinois,21336,39.00072038,-89.02452658
442,1/26/20,0.0,0.0,84017053,Ford,Illinois,12961,40.59706922,-88.22350769
443,1/26/20,0.0,0.0,84017055,Franklin,Illinois,38469,37.99189086,-88.92567818
444,1/26/20,0.0,0.0,84017057,Fulton,Illinois,34340,40.47289135,-90.20862357
445,1/26/20,0.0,0.0,84017059,Gallatin,Illinois,4828,37.76430935,-88.22953869
446,1/26/20,0.0,0.0,84017061,Greene,Illinois,12969,39.35907414,-90.388865
447,1/26/20,0.0,0.0,84017063,Grundy,Illinois,51054,41.28569601,-88.41905692
448,1/26/20,0.0,0.0,84017065,Hamilton,Illinois,8116,38.08163641,-88.53883373
449,1/26/20,0.0,0.0,84017067,Hancock,Illinois,17708,40.40423981,-91.16313899
450,1/26/20,0.0,0.0,84017069,Hardin,Illinois,3821,37.51810645,-88.26873022
451,1/26/20,0.0,0.0,84017071,Henderson,Illinois,6646,40.81908672,-90.92491462
452,1/26/20,0.0,0.0,84017073,Henry,Illinois,48913,41.3533994,-90.13296166
453,1/26/20,0.0,0.0,84017075,Iroquois,Illinois,27114,40.74717633,-87.82466784
454,1/26/20,0.0,0.0,84017077,Jackson,Illinois,56750,37.78595185,-89.38232563
455,1/26/20,0.0,0.0,84017079,Jasper,Illinois,9610,39.01054275,-88.15437049
456,1/26/20,0.0,0.0,84017081,Jefferson,Illinois,37684,38.29980057,-88.9240025
457,1/26/20,0.0,0.0,84017083,Jersey,Illinois,21773,39.08869046,-90.35393073
458,1/26/20,0.0,0.0,84017085,Jo Daviess,Illinois,21235,42.36542373,-90.21094405
459,1/26/20,0.0,0.0,84017087,Johnson,Illinois,12417,37.45939802,-88.88165419
460,1/26/20,0.0,0.0,84017089,Kane,Illinois,532403,41.93842729,-88.42861412
461,1/26/20,0.0,0.0,84017091,Kankakee,Illinois,109862,41.13746989,-87.86205334
462,1/26/20,0.0,0.0,84017093,Kendall,Illinois,128990,41.59081014,-88.42869583
463,1/26/20,0.0,0.0,84017095,Knox,Illinois,49699,40.93148779,-90.21330340000002
464,1/26/20,0.0,0.0,84017097,Lake,Illinois,696535,42.3224907,-88.00367925
465,1/26/20,0.0,0.0,84017099,LaSalle,Illinois,108669,41.34426129999999,-88.88633881
466,1/26/20,0.0,0.0,84017101,Lawrence,Illinois,15678,38.71987914,-87.72884035
467,1/26/20,0.0,0.0,84017103,Lee,Illinois,34096,41.74583951,-89.29977132
468,1/26/20,0.0,0.0,84017105,Livingston,Illinois,35648,40.89188292,-88.55784752
469,1/26/20,0.0,0.0,84017107,Logan,Illinois,28618,40.12581572,-89.36638784
470,1/26/20,0.0,0.0,84017109,McDonough,Illinois,29682,40.45674722,-90.67775541
471,1/26/20,0.0,0.0,84017111,McHenry,Illinois,307774,42.32451172,-88.45248227
472,1/26/20,0.0,0.0,84017113,McLean,Illinois,171517,40.48996987,-88.84621113
473,1/26/20,0.0,0.0,84017115,Macon,Illinois,104009,39.86064913,-88.96342505
474,1/26/20,0.0,0.0,84017117,Macoupin,Illinois,44926,39.26119767,-89.92424028
475,1/26/20,0.0,0.0,84017119,Madison,Illinois,262966,38.83042506,-89.90422563
476,1/26/20,0.0,0.0,84017121,Marion,Illinois,37205,38.64963204,-88.91899208
477,1/26/20,0.0,0.0,84017123,Marshall,Illinois,11438,41.0327901,-89.34510444
478,1/26/20,0.0,0.0,84017125,Mason,Illinois,13359,40.23917274,-89.91824452
479,1/26/20,0.0,0.0,84017127,Massac,Illinois,13772,37.22078441,-88.71036614
480,1/26/20,0.0,0.0,84017129,Menard,Illinois,12196,40.02742725,-89.80246001
481,1/26/20,0.0,0.0,84017131,Mercer,Illinois,15437,41.20596782,-90.74290052
482,1/26/20,0.0,0.0,84017133,Monroe,Illinois,34637,38.27594376,-90.17761038
483,1/26/20,0.0,0.0,84017135,Montgomery,Illinois,28414,39.23198845,-89.47809254
484,1/26/20,0.0,0.0,84017137,Morgan,Illinois,33658,39.71654544,-90.20255104
485,1/26/20,0.0,0.0,84017139,Moultrie,Illinois,14501,39.64187451,-88.62099969
486,1/26/20,0.0,0.0,84017141,Ogle,Illinois,50643,42.04165196,-89.32184679
487,1/26/20,0.0,0.0,84017143,Peoria,Illinois,179179,40.78702156,-89.76078901
488,1/26/20,0.0,0.0,84017145,Perry,Illinois,20916,38.08510853,-89.36856219
489,1/26/20,0.0,0.0,84017147,Piatt,Illinois,16344,40.01360584,-88.59319339
490,1/26/20,0.0,0.0,84017149,Pike,Illinois,15561,39.62265059,-90.8877017
491,1/26/20,0.0,0.0,84017151,Pope,Illinois,4177,37.41391284,-88.56152109
492,1/26/20,0.0,0.0,84017153,Pulaski,Illinois,5335,37.22631423,-89.13085001
493,1/26/20,0.0,0.0,84017155,Putnam,Illinois,5739,41.2013541,-89.2869272
494,1/26/20,0.0,0.0,84017157,Randolph,Illinois,31782,38.05095369,-89.82512254
495,1/26/20,0.0,0.0,84017159,Richland,Illinois,15513,38.71240969,-88.08475366
496,1/26/20,0.0,0.0,84017161,Rock Island,Illinois,141879,41.46613806,-90.57042164
497,1/26/20,0.0,0.0,84017163,St. Clair,Illinois,259686,38.46996033,-89.93063427
498,1/26/20,0.0,0.0,84017165,Saline,Illinois,23491,37.75332999,-88.54119706
499,1/26/20,0.0,0.0,84017167,Sangamon,Illinois,194672,39.75836914,-89.65872023
500,1/26/20,0.0,0.0,84017169,Schuyler,Illinois,6768,40.157179799999994,-90.61114163
501,1/26/20,0.0,0.0,84017171,Scott,Illinois,4951,39.642916899999996,-90.47814431
502,1/26/20,0.0,0.0,84017173,Shelby,Illinois,21634,39.39133527,-88.80611122
503,1/26/20,0.0,0.0,84017175,Stark,Illinois,5342,41.09309773,-89.79745866
504,1/26/20,0.0,0.0,84017177,Stephenson,Illinois,44498,42.35129217,-89.662598
505,1/26/20,0.0,0.0,84017179,Tazewell,Illinois,131803,40.50716185,-89.51404662
506,1/26/20,0.0,0.0,84017181,Union,Illinois,16653,37.47119609,-89.25548938
507,1/26/20,0.0,0.0,84017183,Vermilion,Illinois,75758,40.18417171,-87.73384359
508,1/26/20,0.0,0.0,84017185,Wabash,Illinois,11520,38.44272901,-87.84922065
509,1/26/20,0.0,0.0,84017187,Warren,Illinois,16844,40.84925021,-90.6147432
510,1/26/20,0.0,0.0,84017189,Washington,Illinois,13887,38.35309213,-89.40982703
511,1/26/20,0.0,0.0,84017191,Wayne,Illinois,16215,38.42955355,-88.42586459
512,1/26/20,0.0,0.0,84017193,White,Illinois,13537,38.08706198,-88.17657461
513,1/26/20,0.0,0.0,84017195,Whiteside,Illinois,55175,41.75509713,-89.91556058
514,1/26/20,0.0,0.0,84017197,Will,Illinois,690743,41.44619267,-87.97862712
515,1/26/20,0.0,0.0,84017199,Williamson,Illinois,66597,37.73033511,-88.92994027
516,1/26/20,0.0,0.0,84017201,Winnebago,Illinois,282572,42.33641854,-89.16085327
517,1/26/20,0.0,0.0,84017203,Woodford,Illinois,38459,40.78579374,-89.20973757
520,1/27/20,0.0,0.0,84017001,Adams,Illinois,65435,39.98815591,-91.18786813
521,1/27/20,0.0,0.0,84017003,Alexander,Illinois,5761,37.18049267,-89.32910838
522,1/27/20,0.0,0.0,84017005,Bond,Illinois,16426,38.88829622,-89.43534887
523,1/27/20,0.0,0.0,84017007,Boone,Illinois,53544,42.32359279,-88.82345779
524,1/27/20,0.0,0.0,84017009,Brown,Illinois,6578,39.96209138,-90.75068024
525,1/27/20,0.0,0.0,84017011,Bureau,Illinois,32628,41.40385234,-89.5283051
526,1/27/20,0.0,0.0,84017013,Calhoun,Illinois,4739,39.16840183,-90.66330078
527,1/27/20,0.0,0.0,84017015,Carroll,Illinois,14305,42.06823429,-89.93395545
528,1/27/20,0.0,0.0,84017017,Cass,Illinois,12147,39.96991073,-90.24734436
529,1/27/20,0.0,0.0,84017019,Champaign,Illinois,209689,40.13919438,-88.20046615
530,1/27/20,0.0,0.0,84017021,Christian,Illinois,32304,39.54581621,-89.27780482
531,1/27/20,0.0,0.0,84017023,Clark,Illinois,15441,39.33425789,-87.78705622
532,1/27/20,0.0,0.0,84017025,Clay,Illinois,13184,38.75388572,-88.48914513
533,1/27/20,0.0,0.0,84017027,Clinton,Illinois,37562,38.60704876,-89.42385254
534,1/27/20,0.0,0.0,84017029,Coles,Illinois,50621,39.51949084,-88.22358557
535,1/27/20,0.0,0.0,84017031,Cook,Illinois,5150233,41.84144849,-87.81658794
536,1/27/20,0.0,0.0,84017033,Crawford,Illinois,18667,39.0032229,-87.75954624
537,1/27/20,0.0,0.0,84017035,Cumberland,Illinois,10766,39.27432424,-88.2401158
538,1/27/20,0.0,0.0,84017037,DeKalb,Illinois,104897,41.89373302,-88.76958483
539,1/27/20,0.0,0.0,84017039,De Witt,Illinois,15638,40.17514519,-88.90959682
540,1/27/20,0.0,0.0,84017041,Douglas,Illinois,19465,39.76768052,-88.21854195
541,1/27/20,0.0,0.0,84017043,DuPage,Illinois,922921,41.85116968,-88.08642662
542,1/27/20,0.0,0.0,84017045,Edgar,Illinois,17161,39.6809186,-87.74759563
543,1/27/20,0.0,0.0,84017047,Edwards,Illinois,6395,38.41353228,-88.05720863
544,1/27/20,0.0,0.0,84017049,Effingham,Illinois,34008,39.05935711,-88.58969584
545,1/27/20,0.0,0.0,84017051,Fayette,Illinois,21336,39.00072038,-89.02452658
546,1/27/20,0.0,0.0,84017053,Ford,Illinois,12961,40.59706922,-88.22350769
547,1/27/20,0.0,0.0,84017055,Franklin,Illinois,38469,37.99189086,-88.92567818
548,1/27/20,0.0,0.0,84017057,Fulton,Illinois,34340,40.47289135,-90.20862357
549,1/27/20,0.0,0.0,84017059,Gallatin,Illinois,4828,37.76430935,-88.22953869
550,1/27/20,0.0,0.0,84017061,Greene,Illinois,12969,39.35907414,-90.388865
551,1/27/20,0.0,0.0,84017063,Grundy,Illinois,51054,41.28569601,-88.41905692
552,1/27/20,0.0,0.0,84017065,Hamilton,Illinois,8116,38.08163641,-88.53883373
553,1/27/20,0.0,0.0,84017067,Hancock,Illinois,17708,40.40423981,-91.16313899
554,1/27/20,0.0,0.0,84017069,Hardin,Illinois,3821,37.51810645,-88.26873022
555,1/27/20,0.0,0.0,84017071,Henderson,Illinois,6646,40.81908672,-90.92491462
556,1/27/20,0.0,0.0,84017073,Henry,Illinois,48913,41.3533994,-90.13296166
557,1/27/20,0.0,0.0,84017075,Iroquois,Illinois,27114,40.74717633,-87.82466784
558,1/27/20,0.0,0.0,84017077,Jackson,Illinois,56750,37.78595185,-89.38232563
559,1/27/20,0.0,0.0,84017079,Jasper,Illinois,9610,39.01054275,-88.15437049
560,1/27/20,0.0,0.0,84017081,Jefferson,Illinois,37684,38.29980057,-88.9240025
561,1/27/20,0.0,0.0,84017083,Jersey,Illinois,21773,39.08869046,-90.35393073
562,1/27/20,0.0,0.0,84017085,Jo Daviess,Illinois,21235,42.36542373,-90.21094405
563,1/27/20,0.0,0.0,84017087,Johnson,Illinois,12417,37.45939802,-88.88165419
564,1/27/20,0.0,0.0,84017089,Kane,Illinois,532403,41.93842729,-88.42861412
565,1/27/20,0.0,0.0,84017091,Kankakee,Illinois,109862,41.13746989,-87.86205334
566,1/27/20,0.0,0.0,84017093,Kendall,Illinois,128990,41.59081014,-88.42869583
567,1/27/20,0.0,0.0,84017095,Knox,Illinois,49699,40.93148779,-90.21330340000002
568,1/27/20,0.0,0.0,84017097,Lake,Illinois,696535,42.3224907,-88.00367925
569,1/27/20,0.0,0.0,84017099,LaSalle,Illinois,108669,41.34426129999999,-88.88633881
570,1/27/20,0.0,0.0,84017101,Lawrence,Illinois,15678,38.71987914,-87.72884035
571,1/27/20,0.0,0.0,84017103,Lee,Illinois,34096,41.74583951,-89.29977132
572,1/27/20,0.0,0.0,84017105,Livingston,Illinois,35648,40.89188292,-88.55784752
573,1/27/20,0.0,0.0,84017107,Logan,Illinois,28618,40.12581572,-89.36638784
574,1/27/20,0.0,0.0,84017109,McDonough,Illinois,29682,40.45674722,-90.67775541
575,1/27/20,0.0,0.0,84017111,McHenry,Illinois,307774,42.32451172,-88.45248227
576,1/27/20,0.0,0.0,84017113,McLean,Illinois,171517,40.48996987,-88.84621113
577,1/27/20,0.0,0.0,84017115,Macon,Illinois,104009,39.86064913,-88.96342505
578,1/27/20,0.0,0.0,84017117,Macoupin,Illinois,44926,39.26119767,-89.92424028
579,1/27/20,0.0,0.0,84017119,Madison,Illinois,262966,38.83042506,-89.90422563
580,1/27/20,0.0,0.0,84017121,Marion,Illinois,37205,38.64963204,-88.91899208
581,1/27/20,0.0,0.0,84017123,Marshall,Illinois,11438,41.0327901,-89.34510444
582,1/27/20,0.0,0.0,84017125,Mason,Illinois,13359,40.23917274,-89.91824452
583,1/27/20,0.0,0.0,84017127,Massac,Illinois,13772,37.22078441,-88.71036614
584,1/27/20,0.0,0.0,84017129,Menard,Illinois,12196,40.02742725,-89.80246001
585,1/27/20,0.0,0.0,84017131,Mercer,Illinois,15437,41.20596782,-90.74290052
586,1/27/20,0.0,0.0,84017133,Monroe,Illinois,34637,38.27594376,-90.17761038
587,1/27/20,0.0,0.0,84017135,Montgomery,Illinois,28414,39.23198845,-89.47809254
588,1/27/20,0.0,0.0,84017137,Morgan,Illinois,33658,39.71654544,-90.20255104
589,1/27/20,0.0,0.0,84017139,Moultrie,Illinois,14501,39.64187451,-88.62099969
590,1/27/20,0.0,0.0,84017141,Ogle,Illinois,50643,42.04165196,-89.32184679
591,1/27/20,0.0,0.0,84017143,Peoria,Illinois,179179,40.78702156,-89.76078901
592,1/27/20,0.0,0.0,84017145,Perry,Illinois,20916,38.08510853,-89.36856219
593,1/27/20,0.0,0.0,84017147,Piatt,Illinois,16344,40.01360584,-88.59319339
594,1/27/20,0.0,0.0,84017149,Pike,Illinois,15561,39.62265059,-90.8877017
595,1/27/20,0.0,0.0,84017151,Pope,Illinois,4177,37.41391284,-88.56152109
596,1/27/20,0.0,0.0,84017153,Pulaski,Illinois,5335,37.22631423,-89.13085001
597,1/27/20,0.0,0.0,84017155,Putnam,Illinois,5739,41.2013541,-89.2869272
598,1/27/20,0.0,0.0,84017157,Randolph,Illinois,31782,38.05095369,-89.82512254
599,1/27/20,0.0,0.0,84017159,Richland,Illinois,15513,38.71240969,-88.08475366
600,1/27/20,0.0,0.0,84017161,Rock Island,Illinois,141879,41.46613806,-90.57042164
601,1/27/20,0.0,0.0,84017163,St. Clair,Illinois,259686,38.46996033,-89.93063427
602,1/27/20,0.0,0.0,84017165,Saline,Illinois,23491,37.75332999,-88.54119706
603,1/27/20,0.0,0.0,84017167,Sangamon,Illinois,194672,39.75836914,-89.65872023
604,1/27/20,0.0,0.0,84017169,Schuyler,Illinois,6768,40.157179799999994,-90.61114163
605,1/27/20,0.0,0.0,84017171,Scott,Illinois,4951,39.642916899999996,-90.47814431
606,1/27/20,0.0,0.0,84017173,Shelby,Illinois,21634,39.39133527,-88.80611122
607,1/27/20,0.0,0.0,84017175,Stark,Illinois,5342,41.09309773,-89.79745866
608,1/27/20,0.0,0.0,84017177,Stephenson,Illinois,44498,42.35129217,-89.662598
609,1/27/20,0.0,0.0,84017179,Tazewell,Illinois,131803,40.50716185,-89.51404662
610,1/27/20,0.0,0.0,84017181,Union,Illinois,16653,37.47119609,-89.25548938
611,1/27/20,0.0,0.0,84017183,Vermilion,Illinois,75758,40.18417171,-87.73384359
612,1/27/20,0.0,0.0,84017185,Wabash,Illinois,11520,38.44272901,-87.84922065
613,1/27/20,0.0,0.0,84017187,Warren,Illinois,16844,40.84925021,-90.6147432
614,1/27/20,0.0,0.0,84017189,Washington,Illinois,13887,38.35309213,-89.40982703
615,1/27/20,0.0,0.0,84017191,Wayne,Illinois,16215,38.42955355,-88.42586459
616,1/27/20,0.0,0.0,84017193,White,Illinois,13537,38.08706198,-88.17657461
617,1/27/20,0.0,0.0,84017195,Whiteside,Illinois,55175,41.75509713,-89.91556058
618,1/27/20,0.0,0.0,84017197,Will,Illinois,690743,41.44619267,-87.97862712
619,1/27/20,0.0,0.0,84017199,Williamson,Illinois,66597,37.73033511,-88.92994027
620,1/27/20,0.0,0.0,84017201,Winnebago,Illinois,282572,42.33641854,-89.16085327
621,1/27/20,0.0,0.0,84017203,Woodford,Illinois,38459,40.78579374,-89.20973757
624,1/28/20,0.0,0.0,84017001,Adams,Illinois,65435,39.98815591,-91.18786813
625,1/28/20,0.0,0.0,84017003,Alexander,Illinois,5761,37.18049267,-89.32910838
626,1/28/20,0.0,0.0,84017005,Bond,Illinois,16426,38.88829622,-89.43534887
627,1/28/20,0.0,0.0,84017007,Boone,Illinois,53544,42.32359279,-88.82345779
628,1/28/20,0.0,0.0,84017009,Brown,Illinois,6578,39.96209138,-90.75068024
629,1/28/20,0.0,0.0,84017011,Bureau,Illinois,32628,41.40385234,-89.5283051
630,1/28/20,0.0,0.0,84017013,Calhoun,Illinois,4739,39.16840183,-90.66330078
631,1/28/20,0.0,0.0,84017015,Carroll,Illinois,14305,42.06823429,-89.93395545
632,1/28/20,0.0,0.0,84017017,Cass,Illinois,12147,39.96991073,-90.24734436
633,1/28/20,0.0,0.0,84017019,Champaign,Illinois,209689,40.13919438,-88.20046615
634,1/28/20,0.0,0.0,84017021,Christian,Illinois,32304,39.54581621,-89.27780482
635,1/28/20,0.0,0.0,84017023,Clark,Illinois,15441,39.33425789,-87.78705622
636,1/28/20,0.0,0.0,84017025,Clay,Illinois,13184,38.75388572,-88.48914513
637,1/28/20,0.0,0.0,84017027,Clinton,Illinois,37562,38.60704876,-89.42385254
638,1/28/20,0.0,0.0,84017029,Coles,Illinois,50621,39.51949084,-88.22358557
639,1/28/20,0.0,0.0,84017031,Cook,Illinois,5150233,41.84144849,-87.81658794
640,1/28/20,0.0,0.0,84017033,Crawford,Illinois,18667,39.0032229,-87.75954624
641,1/28/20,0.0,0.0,84017035,Cumberland,Illinois,10766,39.27432424,-88.2401158
642,1/28/20,0.0,0.0,84017037,DeKalb,Illinois,104897,41.89373302,-88.76958483
643,1/28/20,0.0,0.0,84017039,De Witt,Illinois,15638,40.17514519,-88.90959682
644,1/28/20,0.0,0.0,84017041,Douglas,Illinois,19465,39.76768052,-88.21854195
645,1/28/20,0.0,0.0,84017043,DuPage,Illinois,922921,41.85116968,-88.08642662
646,1/28/20,0.0,0.0,84017045,Edgar,Illinois,17161,39.6809186,-87.74759563
647,1/28/20,0.0,0.0,84017047,Edwards,Illinois,6395,38.41353228,-88.05720863
648,1/28/20,0.0,0.0,84017049,Effingham,Illinois,34008,39.05935711,-88.58969584
649,1/28/20,0.0,0.0,84017051,Fayette,Illinois,21336,39.00072038,-89.02452658
650,1/28/20,0.0,0.0,84017053,Ford,Illinois,12961,40.59706922,-88.22350769
651,1/28/20,0.0,0.0,84017055,Franklin,Illinois,38469,37.99189086,-88.92567818
652,1/28/20,0.0,0.0,84017057,Fulton,Illinois,34340,40.47289135,-90.20862357
653,1/28/20,0.0,0.0,84017059,Gallatin,Illinois,4828,37.76430935,-88.22953869
654,1/28/20,0.0,0.0,84017061,Greene,Illinois,12969,39.35907414,-90.388865
655,1/28/20,0.0,0.0,84017063,Grundy,Illinois,51054,41.28569601,-88.41905692
656,1/28/20,0.0,0.0,84017065,Hamilton,Illinois,8116,38.08163641,-88.53883373
657,1/28/20,0.0,0.0,84017067,Hancock,Illinois,17708,40.40423981,-91.16313899
658,1/28/20,0.0,0.0,84017069,Hardin,Illinois,3821,37.51810645,-88.26873022
659,1/28/20,0.0,0.0,84017071,Henderson,Illinois,6646,40.81908672,-90.92491462
660,1/28/20,0.0,0.0,84017073,Henry,Illinois,48913,41.3533994,-90.13296166
661,1/28/20,0.0,0.0,84017075,Iroquois,Illinois,27114,40.74717633,-87.82466784
662,1/28/20,0.0,0.0,84017077,Jackson,Illinois,56750,37.78595185,-89.38232563
663,1/28/20,0.0,0.0,84017079,Jasper,Illinois,9610,39.01054275,-88.15437049
664,1/28/20,0.0,0.0,84017081,Jefferson,Illinois,37684,38.29980057,-88.9240025
665,1/28/20,0.0,0.0,84017083,Jersey,Illinois,21773,39.08869046,-90.35393073
666,1/28/20,0.0,0.0,84017085,Jo Daviess,Illinois,21235,42.36542373,-90.21094405
667,1/28/20,0.0,0.0,84017087,Johnson,Illinois,12417,37.45939802,-88.88165419
668,1/28/20,0.0,0.0,84017089,Kane,Illinois,532403,41.93842729,-88.42861412
669,1/28/20,0.0,0.0,84017091,Kankakee,Illinois,109862,41.13746989,-87.86205334
670,1/28/20,0.0,0.0,84017093,Kendall,Illinois,128990,41.59081014,-88.42869583
671,1/28/20,0.0,0.0,84017095,Knox,Illinois,49699,40.93148779,-90.21330340000002
672,1/28/20,0.0,0.0,84017097,Lake,Illinois,696535,42.3224907,-88.00367925
673,1/28/20,0.0,0.0,84017099,LaSalle,Illinois,108669,41.34426129999999,-88.88633881
674,1/28/20,0.0,0.0,84017101,Lawrence,Illinois,15678,38.71987914,-87.72884035
675,1/28/20,0.0,0.0,84017103,Lee,Illinois,34096,41.74583951,-89.29977132
676,1/28/20,0.0,0.0,84017105,Livingston,Illinois,35648,40.89188292,-88.55784752
677,1/28/20,0.0,0.0,84017107,Logan,Illinois,28618,40.12581572,-89.36638784
678,1/28/20,0.0,0.0,84017109,McDonough,Illinois,29682,40.45674722,-90.67775541
679,1/28/20,0.0,0.0,84017111,McHenry,Illinois,307774,42.32451172,-88.45248227
680,1/28/20,0.0,0.0,84017113,McLean,Illinois,171517,40.48996987,-88.84621113
681,1/28/20,0.0,0.0,84017115,Macon,Illinois,104009,39.86064913,-88.96342505
682,1/28/20,0.0,0.0,84017117,Macoupin,Illinois,44926,39.26119767,-89.92424028
683,1/28/20,0.0,0.0,84017119,Madison,Illinois,262966,38.83042506,-89.90422563
684,1/28/20,0.0,0.0,84017121,Marion,Illinois,37205,38.64963204,-88.91899208
685,1/28/20,0.0,0.0,84017123,Marshall,Illinois,11438,41.0327901,-89.34510444
686,1/28/20,0.0,0.0,84017125,Mason,Illinois,13359,40.23917274,-89.91824452
687,1/28/20,0.0,0.0,84017127,Massac,Illinois,13772,37.22078441,-88.71036614
688,1/28/20,0.0,0.0,84017129,Menard,Illinois,12196,40.02742725,-89.80246001
689,1/28/20,0.0,0.0,84017131,Mercer,Illinois,15437,41.20596782,-90.74290052
690,1/28/20,0.0,0.0,84017133,Monroe,Illinois,34637,38.27594376,-90.17761038
691,1/28/20,0.0,0.0,84017135,Montgomery,Illinois,28414,39.23198845,-89.47809254
692,1/28/20,0.0,0.0,84017137,Morgan,Illinois,33658,39.71654544,-90.20255104
693,1/28/20,0.0,0.0,84017139,Moultrie,Illinois,14501,39.64187451,-88.62099969
694,1/28/20,0.0,0.0,84017141,Ogle,Illinois,50643,42.04165196,-89.32184679
695,1/28/20,0.0,0.0,84017143,Peoria,Illinois,179179,40.78702156,-89.76078901
696,1/28/20,0.0,0.0,84017145,Perry,Illinois,20916,38.08510853,-89.36856219
697,1/28/20,0.0,0.0,84017147,Piatt,Illinois,16344,40.01360584,-88.59319339
698,1/28/20,0.0,0.0,84017149,Pike,Illinois,15561,39.62265059,-90.8877017
699,1/28/20,0.0,0.0,84017151,Pope,Illinois,4177,37.41391284,-88.56152109
700,1/28/20,0.0,0.0,84017153,Pulaski,Illinois,5335,37.22631423,-89.13085001
701,1/28/20,0.0,0.0,84017155,Putnam,Illinois,5739,41.2013541,-89.2869272
702,1/28/20,0.0,0.0,84017157,Randolph,Illinois,31782,38.05095369,-89.82512254
703,1/28/20,0.0,0.0,84017159,Richland,Illinois,15513,38.71240969,-88.08475366
704,1/28/20,0.0,0.0,84017161,Rock Island,Illinois,141879,41.46613806,-90.57042164
705,1/28/20,0.0,0.0,84017163,St. Clair,Illinois,259686,38.46996033,-89.93063427
706,1/28/20,0.0,0.0,84017165,Saline,Illinois,23491,37.75332999,-88.54119706
707,1/28/20,0.0,0.0,84017167,Sangamon,Illinois,194672,39.75836914,-89.65872023
708,1/28/20,0.0,0.0,84017169,Schuyler,Illinois,6768,40.157179799999994,-90.61114163
709,1/28/20,0.0,0.0,84017171,Scott,Illinois,4951,39.642916899999996,-90.47814431
710,1/28/20,0.0,0.0,84017173,Shelby,Illinois,21634,39.39133527,-88.80611122
711,1/28/20,0.0,0.0,84017175,Stark,Illinois,5342,41.09309773,-89.79745866
712,1/28/20,0.0,0.0,84017177,Stephenson,Illinois,44498,42.35129217,-89.662598
713,1/28/20,0.0,0.0,84017179,Tazewell,Illinois,131803,40.50716185,-89.51404662
714,1/28/20,0.0,0.0,84017181,Union,Illinois,16653,37.47119609,-89.25548938
715,1/28/20,0.0,0.0,84017183,Vermilion,Illinois,75758,40.18417171,-87.73384359
716,1/28/20,0.0,0.0,84017185,Wabash,Illinois,11520,38.44272901,-87.84922065
717,1/28/20,0.0,0.0,84017187,Warren,Illinois,16844,40.84925021,-90.6147432
718,1/28/20,0.0,0.0,84017189,Washington,Illinois,13887,38.35309213,-89.40982703
719,1/28/20,0.0,0.0,84017191,Wayne,Illinois,16215,38.42955355,-88.42586459
720,1/28/20,0.0,0.0,84017193,White,Illinois,13537,38.08706198,-88.17657461
721,1/28/20,0.0,0.0,84017195,Whiteside,Illinois,55175,41.75509713,-89.91556058
722,1/28/20,0.0,0.0,84017197,Will,Illinois,690743,41.44619267,-87.97862712
723,1/28/20,0.0,0.0,84017199,Williamson,Illinois,66597,37.73033511,-88.92994027
724,1/28/20,0.0,0.0,84017201,Winnebago,Illinois,282572,42.33641854,-89.16085327
725,1/28/20,0.0,0.0,84017203,Woodford,Illinois,38459,40.78579374,-89.20973757
728,1/29/20,0.0,0.0,84017001,Adams,Illinois,65435,39.98815591,-91.18786813
729,1/29/20,0.0,0.0,84017003,Alexander,Illinois,5761,37.18049267,-89.32910838
730,1/29/20,0.0,0.0,84017005,Bond,Illinois,16426,38.88829622,-89.43534887
731,1/29/20,0.0,0.0,84017007,Boone,Illinois,53544,42.32359279,-88.82345779
732,1/29/20,0.0,0.0,84017009,Brown,Illinois,6578,39.96209138,-90.75068024
733,1/29/20,0.0,0.0,84017011,Bureau,Illinois,32628,41.40385234,-89.5283051
734,1/29/20,0.0,0.0,84017013,Calhoun,Illinois,4739,39.16840183,-90.66330078
735,1/29/20,0.0,0.0,84017015,Carroll,Illinois,14305,42.06823429,-89.93395545
736,1/29/20,0.0,0.0,84017017,Cass,Illinois,12147,39.96991073,-90.24734436
737,1/29/20,0.0,0.0,84017019,Champaign,Illinois,209689,40.13919438,-88.20046615
738,1/29/20,0.0,0.0,84017021,Christian,Illinois,32304,39.54581621,-89.27780482
739,1/29/20,0.0,0.0,84017023,Clark,Illinois,15441,39.33425789,-87.78705622
740,1/29/20,0.0,0.0,84017025,Clay,Illinois,13184,38.75388572,-88.48914513
741,1/29/20,0.0,0.0,84017027,Clinton,Illinois,37562,38.60704876,-89.42385254
742,1/29/20,0.0,0.0,84017029,Coles,Illinois,50621,39.51949084,-88.22358557
743,1/29/20,0.0,0.0,84017031,Cook,Illinois,5150233,41.84144849,-87.81658794
744,1/29/20,0.0,0.0,84017033,Crawford,Illinois,18667,39.0032229,-87.75954624
745,1/29/20,0.0,0.0,84017035,Cumberland,Illinois,10766,39.27432424,-88.2401158
746,1/29/20,0.0,0.0,84017037,DeKalb,Illinois,104897,41.89373302,-88.76958483
747,1/29/20,0.0,0.0,84017039,De Witt,Illinois,15638,40.17514519,-88.90959682
748,1/29/20,0.0,0.0,84017041,Douglas,Illinois,19465,39.76768052,-88.21854195
749,1/29/20,0.0,0.0,84017043,DuPage,Illinois,922921,41.85116968,-88.08642662
750,1/29/20,0.0,0.0,84017045,Edgar,Illinois,17161,39.6809186,-87.74759563
751,1/29/20,0.0,0.0,84017047,Edwards,Illinois,6395,38.41353228,-88.05720863
752,1/29/20,0.0,0.0,84017049,Effingham,Illinois,34008,39.05935711,-88.58969584
753,1/29/20,0.0,0.0,84017051,Fayette,Illinois,21336,39.00072038,-89.02452658
754,1/29/20,0.0,0.0,84017053,Ford,Illinois,12961,40.59706922,-88.22350769
755,1/29/20,0.0,0.0,84017055,Franklin,Illinois,38469,37.99189086,-88.92567818
756,1/29/20,0.0,0.0,84017057,Fulton,Illinois,34340,40.47289135,-90.20862357
757,1/29/20,0.0,0.0,84017059,Gallatin,Illinois,4828,37.76430935,-88.22953869
758,1/29/20,0.0,0.0,84017061,Greene,Illinois,12969,39.35907414,-90.388865
759,1/29/20,0.0,0.0,84017063,Grundy,Illinois,51054,41.28569601,-88.41905692
760,1/29/20,0.0,0.0,84017065,Hamilton,Illinois,8116,38.08163641,-88.53883373
761,1/29/20,0.0,0.0,84017067,Hancock,Illinois,17708,40.40423981,-91.16313899
762,1/29/20,0.0,0.0,84017069,Hardin,Illinois,3821,37.51810645,-88.26873022
763,1/29/20,0.0,0.0,84017071,Henderson,Illinois,6646,40.81908672,-90.92491462
764,1/29/20,0.0,0.0,84017073,Henry,Illinois,48913,41.3533994,-90.13296166
765,1/29/20,0.0,0.0,84017075,Iroquois,Illinois,27114,40.74717633,-87.82466784
766,1/29/20,0.0,0.0,84017077,Jackson,Illinois,56750,37.78595185,-89.38232563
767,1/29/20,0.0,0.0,84017079,Jasper,Illinois,9610,39.01054275,-88.15437049
768,1/29/20,0.0,0.0,84017081,Jefferson,Illinois,37684,38.29980057,-88.9240025
769,1/29/20,0.0,0.0,84017083,Jersey,Illinois,21773,39.08869046,-90.35393073
770,1/29/20,0.0,0.0,84017085,Jo Daviess,Illinois,21235,42.36542373,-90.21094405
771,1/29/20,0.0,0.0,84017087,Johnson,Illinois,12417,37.45939802,-88.88165419
772,1/29/20,0.0,0.0,84017089,Kane,Illinois,532403,41.93842729,-88.42861412
773,1/29/20,0.0,0.0,84017091,Kankakee,Illinois,109862,41.13746989,-87.86205334
774,1/29/20,0.0,0.0,84017093,Kendall,Illinois,128990,41.59081014,-88.42869583
775,1/29/20,0.0,0.0,84017095,Knox,Illinois,49699,40.93148779,-90.21330340000002
776,1/29/20,0.0,0.0,84017097,Lake,Illinois,696535,42.3224907,-88.00367925
777,1/29/20,0.0,0.0,84017099,LaSalle,Illinois,108669,41.34426129999999,-88.88633881
778,1/29/20,0.0,0.0,84017101,Lawrence,Illinois,15678,38.71987914,-87.72884035
779,1/29/20,0.0,0.0,84017103,Lee,Illinois,34096,41.74583951,-89.29977132
780,1/29/20,0.0,0.0,84017105,Livingston,Illinois,35648,40.89188292,-88.55784752
781,1/29/20,0.0,0.0,84017107,Logan,Illinois,28618,40.12581572,-89.36638784
782,1/29/20,0.0,0.0,84017109,McDonough,Illinois,29682,40.45674722,-90.67775541
783,1/29/20,0.0,0.0,84017111,McHenry,Illinois,307774,42.32451172,-88.45248227
784,1/29/20,0.0,0.0,84017113,McLean,Illinois,171517,40.48996987,-88.84621113
785,1/29/20,0.0,0.0,84017115,Macon,Illinois,104009,39.86064913,-88.96342505
786,1/29/20,0.0,0.0,84017117,Macoupin,Illinois,44926,39.26119767,-89.92424028
787,1/29/20,0.0,0.0,84017119,Madison,Illinois,262966,38.83042506,-89.90422563
788,1/29/20,0.0,0.0,84017121,Marion,Illinois,37205,38.64963204,-88.91899208
789,1/29/20,0.0,0.0,84017123,Marshall,Illinois,11438,41.0327901,-89.34510444
790,1/29/20,0.0,0.0,84017125,Mason,Illinois,13359,40.23917274,-89.91824452
791,1/29/20,0.0,0.0,84017127,Massac,Illinois,13772,37.22078441,-88.71036614
792,1/29/20,0.0,0.0,84017129,Menard,Illinois,12196,40.02742725,-89.80246001
793,1/29/20,0.0,0.0,84017131,Mercer,Illinois,15437,41.20596782,-90.74290052
794,1/29/20,0.0,0.0,84017133,Monroe,Illinois,34637,38.27594376,-90.17761038
795,1/29/20,0.0,0.0,84017135,Montgomery,Illinois,28414,39.23198845,-89.47809254
796,1/29/20,0.0,0.0,84017137,Morgan,Illinois,33658,39.71654544,-90.20255104
797,1/29/20,0.0,0.0,84017139,Moultrie,Illinois,14501,39.64187451,-88.62099969
798,1/29/20,0.0,0.0,84017141,Ogle,Illinois,50643,42.04165196,-89.32184679
799,1/29/20,0.0,0.0,84017143,Peoria,Illinois,179179,40.78702156,-89.76078901
800,1/29/20,0.0,0.0,84017145,Perry,Illinois,20916,38.08510853,-89.36856219
801,1/29/20,0.0,0.0,84017147,Piatt,Illinois,16344,40.01360584,-88.59319339
802,1/29/20,0.0,0.0,84017149,Pike,Illinois,15561,39.62265059,-90.8877017
803,1/29/20,0.0,0.0,84017151,Pope,Illinois,4177,37.41391284,-88.56152109
804,1/29/20,0.0,0.0,84017153,Pulaski,Illinois,5335,37.22631423,-89.13085001
805,1/29/20,0.0,0.0,84017155,Putnam,Illinois,5739,41.2013541,-89.2869272
806,1/29/20,0.0,0.0,84017157,Randolph,Illinois,31782,38.05095369,-89.82512254
807,1/29/20,0.0,0.0,84017159,Richland,Illinois,15513,38.71240969,-88.08475366
808,1/29/20,0.0,0.0,84017161,Rock Island,Illinois,141879,41.46613806,-90.57042164
809,1/29/20,0.0,0.0,84017163,St. Clair,Illinois,259686,38.46996033,-89.93063427
810,1/29/20,0.0,0.0,84017165,Saline,Illinois,23491,37.75332999,-88.54119706
811,1/29/20,0.0,0.0,84017167,Sangamon,Illinois,194672,39.75836914,-89.65872023
812,1/29/20,0.0,0.0,84017169,Schuyler,Illinois,6768,40.157179799999994,-90.61114163
813,1/29/20,0.0,0.0,84017171,Scott,Illinois,4951,39.642916899999996,-90.47814431
814,1/29/20,0.0,0.0,84017173,Shelby,Illinois,21634,39.39133527,-88.80611122
815,1/29/20,0.0,0.0,84017175,Stark,Illinois,5342,41.09309773,-89.79745866
816,1/29/20,0.0,0.0,84017177,Stephenson,Illinois,44498,42.35129217,-89.662598
817,1/29/20,0.0,0.0,84017179,Tazewell,Illinois,131803,40.50716185,-89.51404662
818,1/29/20,0.0,0.0,84017181,Union,Illinois,16653,37.47119609,-89.25548938
819,1/29/20,0.0,0.0,84017183,Vermilion,Illinois,75758,40.18417171,-87.73384359
820,1/29/20,0.0,0.0,84017185,Wabash,Illinois,11520,38.44272901,-87.84922065
821,1/29/20,0.0,0.0,84017187,Warren,Illinois,16844,40.84925021,-90.6147432
822,1/29/20,0.0,0.0,84017189,Washington,Illinois,13887,38.35309213,-89.40982703
823,1/29/20,0.0,0.0,84017191,Wayne,Illinois,16215,38.42955355,-88.42586459
824,1/29/20,0.0,0.0,84017193,White,Illinois,13537,38.08706198,-88.17657461
825,1/29/20,0.0,0.0,84017195,Whiteside,Illinois,55175,41.75509713,-89.91556058
826,1/29/20,0.0,0.0,84017197,Will,Illinois,690743,41.44619267,-87.97862712
827,1/29/20,0.0,0.0,84017199,Williamson,Illinois,66597,37.73033511,-88.92994027
828,1/29/20,0.0,0.0,84017201,Winnebago,Illinois,282572,42.33641854,-89.16085327
829,1/29/20,0.0,0.0,84017203,Woodford,Illinois,38459,40.78579374,-89.20973757
832,1/30/20,0.0,0.0,84017001,Adams,Illinois,65435,39.98815591,-91.18786813
833,1/30/20,0.0,0.0,84017003,Alexander,Illinois,5761,37.18049267,-89.32910838
834,1/30/20,0.0,0.0,84017005,Bond,Illinois,16426,38.88829622,-89.43534887
835,1/30/20,0.0,0.0,84017007,Boone,Illinois,53544,42.32359279,-88.82345779
836,1/30/20,0.0,0.0,84017009,Brown,Illinois,6578,39.96209138,-90.75068024
837,1/30/20,0.0,0.0,84017011,Bureau,Illinois,32628,41.40385234,-89.5283051
838,1/30/20,0.0,0.0,84017013,Calhoun,Illinois,4739,39.16840183,-90.66330078
839,1/30/20,0.0,0.0,84017015,Carroll,Illinois,14305,42.06823429,-89.93395545
840,1/30/20,0.0,0.0,84017017,Cass,Illinois,12147,39.96991073,-90.24734436
841,1/30/20,0.0,0.0,84017019,Champaign,Illinois,209689,40.13919438,-88.20046615
842,1/30/20,0.0,0.0,84017021,Christian,Illinois,32304,39.54581621,-89.27780482
843,1/30/20,0.0,0.0,84017023,Clark,Illinois,15441,39.33425789,-87.78705622
844,1/30/20,0.0,0.0,84017025,Clay,Illinois,13184,38.75388572,-88.48914513
845,1/30/20,0.0,0.0,84017027,Clinton,Illinois,37562,38.60704876,-89.42385254
846,1/30/20,0.0,0.0,84017029,Coles,Illinois,50621,39.51949084,-88.22358557
847,1/30/20,0.0,0.0,84017031,Cook,Illinois,5150233,41.84144849,-87.81658794
848,1/30/20,0.0,0.0,84017033,Crawford,Illinois,18667,39.0032229,-87.75954624
849,1/30/20,0.0,0.0,84017035,Cumberland,Illinois,10766,39.27432424,-88.2401158
850,1/30/20,0.0,0.0,84017037,DeKalb,Illinois,104897,41.89373302,-88.76958483
851,1/30/20,0.0,0.0,84017039,De Witt,Illinois,15638,40.17514519,-88.90959682
852,1/30/20,0.0,0.0,84017041,Douglas,Illinois,19465,39.76768052,-88.21854195
853,1/30/20,0.0,0.0,84017043,DuPage,Illinois,922921,41.85116968,-88.08642662
854,1/30/20,0.0,0.0,84017045,Edgar,Illinois,17161,39.6809186,-87.74759563
855,1/30/20,0.0,0.0,84017047,Edwards,Illinois,6395,38.41353228,-88.05720863
856,1/30/20,0.0,0.0,84017049,Effingham,Illinois,34008,39.05935711,-88.58969584
857,1/30/20,0.0,0.0,84017051,Fayette,Illinois,21336,39.00072038,-89.02452658
858,1/30/20,0.0,0.0,84017053,Ford,Illinois,12961,40.59706922,-88.22350769
859,1/30/20,0.0,0.0,84017055,Franklin,Illinois,38469,37.99189086,-88.92567818
860,1/30/20,0.0,0.0,84017057,Fulton,Illinois,34340,40.47289135,-90.20862357
861,1/30/20,0.0,0.0,84017059,Gallatin,Illinois,4828,37.76430935,-88.22953869
862,1/30/20,0.0,0.0,84017061,Greene,Illinois,12969,39.35907414,-90.388865
863,1/30/20,0.0,0.0,84017063,Grundy,Illinois,51054,41.28569601,-88.41905692
864,1/30/20,0.0,0.0,84017065,Hamilton,Illinois,8116,38.08163641,-88.53883373
865,1/30/20,0.0,0.0,84017067,Hancock,Illinois,17708,40.40423981,-91.16313899
866,1/30/20,0.0,0.0,84017069,Hardin,Illinois,3821,37.51810645,-88.26873022
867,1/30/20,0.0,0.0,84017071,Henderson,Illinois,6646,40.81908672,-90.92491462
868,1/30/20,0.0,0.0,84017073,Henry,Illinois,48913,41.3533994,-90.13296166
869,1/30/20,0.0,0.0,84017075,Iroquois,Illinois,27114,40.74717633,-87.82466784
870,1/30/20,0.0,0.0,84017077,Jackson,Illinois,56750,37.78595185,-89.38232563
871,1/30/20,0.0,0.0,84017079,Jasper,Illinois,9610,39.01054275,-88.15437049
872,1/30/20,0.0,0.0,84017081,Jefferson,Illinois,37684,38.29980057,-88.9240025
873,1/30/20,0.0,0.0,84017083,Jersey,Illinois,21773,39.08869046,-90.35393073
874,1/30/20,0.0,0.0,84017085,Jo Daviess,Illinois,21235,42.36542373,-90.21094405
875,1/30/20,0.0,0.0,84017087,Johnson,Illinois,12417,37.45939802,-88.88165419
876,1/30/20,0.0,0.0,84017089,Kane,Illinois,532403,41.93842729,-88.42861412
877,1/30/20,0.0,0.0,84017091,Kankakee,Illinois,109862,41.13746989,-87.86205334
878,1/30/20,0.0,0.0,84017093,Kendall,Illinois,128990,41.59081014,-88.42869583
879,1/30/20,0.0,0.0,84017095,Knox,Illinois,49699,40.93148779,-90.21330340000002
880,1/30/20,0.0,0.0,84017097,Lake,Illinois,696535,42.3224907,-88.00367925
881,1/30/20,0.0,0.0,84017099,LaSalle,Illinois,108669,41.34426129999999,-88.88633881
882,1/30/20,0.0,0.0,84017101,Lawrence,Illinois,15678,38.71987914,-87.72884035
883,1/30/20,0.0,0.0,84017103,Lee,Illinois,34096,41.74583951,-89.29977132
884,1/30/20,0.0,0.0,84017105,Livingston,Illinois,35648,40.89188292,-88.55784752
885,1/30/20,0.0,0.0,84017107,Logan,Illinois,28618,40.12581572,-89.36638784
886,1/30/20,0.0,0.0,84017109,McDonough,Illinois,29682,40.45674722,-90.67775541
887,1/30/20,0.0,0.0,84017111,McHenry,Illinois,307774,42.32451172,-88.45248227
888,1/30/20,0.0,0.0,84017113,McLean,Illinois,171517,40.48996987,-88.84621113
889,1/30/20,0.0,0.0,84017115,Macon,Illinois,104009,39.86064913,-88.96342505
890,1/30/20,0.0,0.0,84017117,Macoupin,Illinois,44926,39.26119767,-89.92424028
891,1/30/20,0.0,0.0,84017119,Madison,Illinois,262966,38.83042506,-89.90422563
892,1/30/20,0.0,0.0,84017121,Marion,Illinois,37205,38.64963204,-88.91899208
893,1/30/20,0.0,0.0,84017123,Marshall,Illinois,11438,41.0327901,-89.34510444
894,1/30/20,0.0,0.0,84017125,Mason,Illinois,13359,40.23917274,-89.91824452
895,1/30/20,0.0,0.0,84017127,Massac,Illinois,13772,37.22078441,-88.71036614
896,1/30/20,0.0,0.0,84017129,Menard,Illinois,12196,40.02742725,-89.80246001
897,1/30/20,0.0,0.0,84017131,Mercer,Illinois,15437,41.20596782,-90.74290052
898,1/30/20,0.0,0.0,84017133,Monroe,Illinois,34637,38.27594376,-90.17761038
899,1/30/20,0.0,0.0,84017135,Montgomery,Illinois,28414,39.23198845,-89.47809254
900,1/30/20,0.0,0.0,84017137,Morgan,Illinois,33658,39.71654544,-90.20255104
901,1/30/20,0.0,0.0,84017139,Moultrie,Illinois,14501,39.64187451,-88.62099969
902,1/30/20,0.0,0.0,84017141,Ogle,Illinois,50643,42.04165196,-89.32184679
903,1/30/20,0.0,0.0,84017143,Peoria,Illinois,179179,40.78702156,-89.76078901
904,1/30/20,0.0,0.0,84017145,Perry,Illinois,20916,38.08510853,-89.36856219
905,1/30/20,0.0,0.0,84017147,Piatt,Illinois,16344,40.01360584,-88.59319339
906,1/30/20,0.0,0.0,84017149,Pike,Illinois,15561,39.62265059,-90.8877017
907,1/30/20,0.0,0.0,84017151,Pope,Illinois,4177,37.41391284,-88.56152109
908,1/30/20,0.0,0.0,84017153,Pulaski,Illinois,5335,37.22631423,-89.13085001
909,1/30/20,0.0,0.0,84017155,Putnam,Illinois,5739,41.2013541,-89.2869272
910,1/30/20,0.0,0.0,84017157,Randolph,Illinois,31782,38.05095369,-89.82512254
911,1/30/20,0.0,0.0,84017159,Richland,Illinois,15513,38.71240969,-88.08475366
912,1/30/20,0.0,0.0,84017161,Rock Island,Illinois,141879,41.46613806,-90.57042164
913,1/30/20,0.0,0.0,84017163,St. Clair,Illinois,259686,38.46996033,-89.93063427
914,1/30/20,0.0,0.0,84017165,Saline,Illinois,23491,37.75332999,-88.54119706
915,1/30/20,0.0,0.0,84017167,Sangamon,Illinois,194672,39.75836914,-89.65872023
916,1/30/20,0.0,0.0,84017169,Schuyler,Illinois,6768,40.157179799999994,-90.61114163
917,1/30/20,0.0,0.0,84017171,Scott,Illinois,4951,39.642916899999996,-90.47814431
918,1/30/20,0.0,0.0,84017173,Shelby,Illinois,21634,39.39133527,-88.80611122
919,1/30/20,0.0,0.0,84017175,Stark,Illinois,5342,41.09309773,-89.79745866
920,1/30/20,0.0,0.0,84017177,Stephenson,Illinois,44498,42.35129217,-89.662598
921,1/30/20,0.0,0.0,84017179,Tazewell,Illinois,131803,40.50716185,-89.51404662
922,1/30/20,0.0,0.0,84017181,Union,Illinois,16653,37.47119609,-89.25548938
923,1/30/20,0.0,0.0,84017183,Vermilion,Illinois,75758,40.18417171,-87.73384359
924,1/30/20,0.0,0.0,84017185,Wabash,Illinois,11520,38.44272901,-87.84922065
925,1/30/20,0.0,0.0,84017187,Warren,Illinois,16844,40.84925021,-90.6147432
926,1/30/20,0.0,0.0,84017189,Washington,Illinois,13887,38.35309213,-89.40982703
927,1/30/20,0.0,0.0,84017191,Wayne,Illinois,16215,38.42955355,-88.42586459
928,1/30/20,0.0,0.0,84017193,White,Illinois,13537,38.08706198,-88.17657461
929,1/30/20,0.0,0.0,84017195,Whiteside,Illinois,55175,41.75509713,-89.91556058
930,1/30/20,0.0,0.0,84017197,Will,Illinois,690743,41.44619267,-87.97862712
931,1/30/20,0.0,0.0,84017199,Williamson,Illinois,66597,37.73033511,-88.92994027
932,1/30/20,0.0,0.0,84017201,Winnebago,Illinois,282572,42.33641854,-89.16085327
933,1/30/20,0.0,0.0,84017203,Woodford,Illinois,38459,40.78579374,-89.20973757
936,1/31/20,0.0,0.0,84017001,Adams,Illinois,65435,39.98815591,-91.18786813
937,1/31/20,0.0,0.0,84017003,Alexander,Illinois,5761,37.18049267,-89.32910838
938,1/31/20,0.0,0.0,84017005,Bond,Illinois,16426,38.88829622,-89.43534887
939,1/31/20,0.0,0.0,84017007,Boone,Illinois,53544,42.32359279,-88.82345779
940,1/31/20,0.0,0.0,84017009,Brown,Illinois,6578,39.96209138,-90.75068024
941,1/31/20,0.0,0.0,84017011,Bureau,Illinois,32628,41.40385234,-89.5283051
942,1/31/20,0.0,0.0,84017013,Calhoun,Illinois,4739,39.16840183,-90.66330078
943,1/31/20,0.0,0.0,84017015,Carroll,Illinois,14305,42.06823429,-89.93395545
944,1/31/20,0.0,0.0,84017017,Cass,Illinois,12147,39.96991073,-90.24734436
945,1/31/20,0.0,0.0,84017019,Champaign,Illinois,209689,40.13919438,-88.20046615
946,1/31/20,0.0,0.0,84017021,Christian,Illinois,32304,39.54581621,-89.27780482
947,1/31/20,0.0,0.0,84017023,Clark,Illinois,15441,39.33425789,-87.78705622
948,1/31/20,0.0,0.0,84017025,Clay,Illinois,13184,38.75388572,-88.48914513
949,1/31/20,0.0,0.0,84017027,Clinton,Illinois,37562,38.60704876,-89.42385254
950,1/31/20,0.0,0.0,84017029,Coles,Illinois,50621,39.51949084,-88.22358557
951,1/31/20,1.0,0.0,84017031,Cook,Illinois,5150233,41.84144849,-87.81658794
952,1/31/20,0.0,0.0,84017033,Crawford,Illinois,18667,39.0032229,-87.75954624
953,1/31/20,0.0,0.0,84017035,Cumberland,Illinois,10766,39.27432424,-88.2401158
954,1/31/20,0.0,0.0,84017037,DeKalb,Illinois,104897,41.89373302,-88.76958483
955,1/31/20,0.0,0.0,84017039,De Witt,Illinois,15638,40.17514519,-88.90959682
956,1/31/20,0.0,0.0,84017041,Douglas,Illinois,19465,39.76768052,-88.21854195
957,1/31/20,0.0,0.0,84017043,DuPage,Illinois,922921,41.85116968,-88.08642662
958,1/31/20,0.0,0.0,84017045,Edgar,Illinois,17161,39.6809186,-87.74759563
959,1/31/20,0.0,0.0,84017047,Edwards,Illinois,6395,38.41353228,-88.05720863
960,1/31/20,0.0,0.0,84017049,Effingham,Illinois,34008,39.05935711,-88.58969584
961,1/31/20,0.0,0.0,84017051,Fayette,Illinois,21336,39.00072038,-89.02452658
962,1/31/20,0.0,0.0,84017053,Ford,Illinois,12961,40.59706922,-88.22350769
963,1/31/20,0.0,0.0,84017055,Franklin,Illinois,38469,37.99189086,-88.92567818
964,1/31/20,0.0,0.0,84017057,Fulton,Illinois,34340,40.47289135,-90.20862357
965,1/31/20,0.0,0.0,84017059,Gallatin,Illinois,4828,37.76430935,-88.22953869
966,1/31/20,0.0,0.0,84017061,Greene,Illinois,12969,39.35907414,-90.388865
967,1/31/20,0.0,0.0,84017063,Grundy,Illinois,51054,41.28569601,-88.41905692
968,1/31/20,0.0,0.0,84017065,Hamilton,Illinois,8116,38.08163641,-88.53883373
969,1/31/20,0.0,0.0,84017067,Hancock,Illinois,17708,40.40423981,-91.16313899
970,1/31/20,0.0,0.0,84017069,Hardin,Illinois,3821,37.51810645,-88.26873022
971,1/31/20,0.0,0.0,84017071,Henderson,Illinois,6646,40.81908672,-90.92491462
972,1/31/20,0.0,0.0,84017073,Henry,Illinois,48913,41.3533994,-90.13296166
973,1/31/20,0.0,0.0,84017075,Iroquois,Illinois,27114,40.74717633,-87.82466784
974,1/31/20,0.0,0.0,84017077,Jackson,Illinois,56750,37.78595185,-89.38232563
975,1/31/20,0.0,0.0,84017079,Jasper,Illinois,9610,39.01054275,-88.15437049
976,1/31/20,0.0,0.0,84017081,Jefferson,Illinois,37684,38.29980057,-88.9240025
977,1/31/20,0.0,0.0,84017083,Jersey,Illinois,21773,39.08869046,-90.35393073
978,1/31/20,0.0,0.0,84017085,Jo Daviess,Illinois,21235,42.36542373,-90.21094405
979,1/31/20,0.0,0.0,84017087,Johnson,Illinois,12417,37.45939802,-88.88165419
980,1/31/20,0.0,0.0,84017089,Kane,Illinois,532403,41.93842729,-88.42861412
981,1/31/20,0.0,0.0,84017091,Kankakee,Illinois,109862,41.13746989,-87.86205334
982,1/31/20,0.0,0.0,84017093,Kendall,Illinois,128990,41.59081014,-88.42869583
983,1/31/20,0.0,0.0,84017095,Knox,Illinois,49699,40.93148779,-90.21330340000002
984,1/31/20,0.0,0.0,84017097,Lake,Illinois,696535,42.3224907,-88.00367925
985,1/31/20,0.0,0.0,84017099,LaSalle,Illinois,108669,41.34426129999999,-88.88633881
986,1/31/20,0.0,0.0,84017101,Lawrence,Illinois,15678,38.71987914,-87.72884035
987,1/31/20,0.0,0.0,84017103,Lee,Illinois,34096,41.74583951,-89.29977132
988,1/31/20,0.0,0.0,84017105,Livingston,Illinois,35648,40.89188292,-88.55784752
989,1/31/20,0.0,0.0,84017107,Logan,Illinois,28618,40.12581572,-89.36638784
990,1/31/20,0.0,0.0,84017109,McDonough,Illinois,29682,40.45674722,-90.67775541
991,1/31/20,0.0,0.0,84017111,McHenry,Illinois,307774,42.32451172,-88.45248227
992,1/31/20,0.0,0.0,84017113,McLean,Illinois,171517,40.48996987,-88.84621113
993,1/31/20,0.0,0.0,84017115,Macon,Illinois,104009,39.86064913,-88.96342505
994,1/31/20,0.0,0.0,84017117,Macoupin,Illinois,44926,39.26119767,-89.92424028
995,1/31/20,0.0,0.0,84017119,Madison,Illinois,262966,38.83042506,-89.90422563
996,1/31/20,0.0,0.0,84017121,Marion,Illinois,37205,38.64963204,-88.91899208
997,1/31/20,0.0,0.0,84017123,Marshall,Illinois,11438,41.0327901,-89.34510444
998,1/31/20,0.0,0.0,84017125,Mason,Illinois,13359,40.23917274,-89.91824452
999,1/31/20,0.0,0.0,84017127,Massac,Illinois,13772,37.22078441,-88.71036614
1000,1/31/20,0.0,0.0,84017129,Menard,Illinois,12196,40.02742725,-89.80246001
1001,1/31/20,0.0,0.0,84017131,Mercer,Illinois,15437,41.20596782,-90.74290052
1002,1/31/20,0.0,0.0,84017133,Monroe,Illinois,34637,38.27594376,-90.17761038
1003,1/31/20,0.0,0.0,84017135,Montgomery,Illinois,28414,39.23198845,-89.47809254
1004,1/31/20,0.0,0.0,84017137,Morgan,Illinois,33658,39.71654544,-90.20255104
1005,1/31/20,0.0,0.0,84017139,Moultrie,Illinois,14501,39.64187451,-88.62099969
1006,1/31/20,0.0,0.0,84017141,Ogle,Illinois,50643,42.04165196,-89.32184679
1007,1/31/20,0.0,0.0,84017143,Peoria,Illinois,179179,40.78702156,-89.76078901
1008,1/31/20,0.0,0.0,84017145,Perry,Illinois,20916,38.08510853,-89.36856219
1009,1/31/20,0.0,0.0,84017147,Piatt,Illinois,16344,40.01360584,-88.59319339
1010,1/31/20,0.0,0.0,84017149,Pike,Illinois,15561,39.62265059,-90.8877017
1011,1/31/20,0.0,0.0,84017151,Pope,Illinois,4177,37.41391284,-88.56152109
1012,1/31/20,0.0,0.0,84017153,Pulaski,Illinois,5335,37.22631423,-89.13085001
1013,1/31/20,0.0,0.0,84017155,Putnam,Illinois,5739,41.2013541,-89.2869272
1014,1/31/20,0.0,0.0,84017157,Randolph,Illinois,31782,38.05095369,-89.82512254
1015,1/31/20,0.0,0.0,84017159,Richland,Illinois,15513,38.71240969,-88.08475366
1016,1/31/20,0.0,0.0,84017161,Rock Island,Illinois,141879,41.46613806,-90.57042164
1017,1/31/20,0.0,0.0,84017163,St. Clair,Illinois,259686,38.46996033,-89.93063427
1018,1/31/20,0.0,0.0,84017165,Saline,Illinois,23491,37.75332999,-88.54119706
1019,1/31/20,0.0,0.0,84017167,Sangamon,Illinois,194672,39.75836914,-89.65872023
1020,1/31/20,0.0,0.0,84017169,Schuyler,Illinois,6768,40.157179799999994,-90.61114163
1021,1/31/20,0.0,0.0,84017171,Scott,Illinois,4951,39.642916899999996,-90.47814431
1022,1/31/20,0.0,0.0,84017173,Shelby,Illinois,21634,39.39133527,-88.80611122
1023,1/31/20,0.0,0.0,84017175,Stark,Illinois,5342,41.09309773,-89.79745866
1024,1/31/20,0.0,0.0,84017177,Stephenson,Illinois,44498,42.35129217,-89.662598
1025,1/31/20,0.0,0.0,84017179,Tazewell,Illinois,131803,40.50716185,-89.51404662
1026,1/31/20,0.0,0.0,84017181,Union,Illinois,16653,37.47119609,-89.25548938
1027,1/31/20,0.0,0.0,84017183,Vermilion,Illinois,75758,40.18417171,-87.73384359
1028,1/31/20,0.0,0.0,84017185,Wabash,Illinois,11520,38.44272901,-87.84922065
1029,1/31/20,0.0,0.0,84017187,Warren,Illinois,16844,40.84925021,-90.6147432
1030,1/31/20,0.0,0.0,84017189,Washington,Illinois,13887,38.35309213,-89.40982703
1031,1/31/20,0.0,0.0,84017191,Wayne,Illinois,16215,38.42955355,-88.42586459
1032,1/31/20,0.0,0.0,84017193,White,Illinois,13537,38.08706198,-88.17657461
1033,1/31/20,0.0,0.0,84017195,Whiteside,Illinois,55175,41.75509713,-89.91556058
1034,1/31/20,0.0,0.0,84017197,Will,Illinois,690743,41.44619267,-87.97862712
1035,1/31/20,0.0,0.0,84017199,Williamson,Illinois,66597,37.73033511,-88.92994027
1036,1/31/20,0.0,0.0,84017201,Winnebago,Illinois,282572,42.33641854,-89.16085327
1037,1/31/20,0.0,0.0,84017203,Woodford,Illinois,38459,40.78579374,-89.20973757
1040,2/1/20,0.0,0.0,84017001,Adams,Illinois,65435,39.98815591,-91.18786813
1041,2/1/20,0.0,0.0,84017003,Alexander,Illinois,5761,37.18049267,-89.32910838
1042,2/1/20,0.0,0.0,84017005,Bond,Illinois,16426,38.88829622,-89.43534887
1043,2/1/20,0.0,0.0,84017007,Boone,Illinois,53544,42.32359279,-88.82345779
1044,2/1/20,0.0,0.0,84017009,Brown,Illinois,6578,39.96209138,-90.75068024
1045,2/1/20,0.0,0.0,84017011,Bureau,Illinois,32628,41.40385234,-89.5283051
1046,2/1/20,0.0,0.0,84017013,Calhoun,Illinois,4739,39.16840183,-90.66330078
1047,2/1/20,0.0,0.0,84017015,Carroll,Illinois,14305,42.06823429,-89.93395545
1048,2/1/20,0.0,0.0,84017017,Cass,Illinois,12147,39.96991073,-90.24734436
1049,2/1/20,0.0,0.0,84017019,Champaign,Illinois,209689,40.13919438,-88.20046615
1050,2/1/20,0.0,0.0,84017021,Christian,Illinois,32304,39.54581621,-89.27780482
1051,2/1/20,0.0,0.0,84017023,Clark,Illinois,15441,39.33425789,-87.78705622
1052,2/1/20,0.0,0.0,84017025,Clay,Illinois,13184,38.75388572,-88.48914513
1053,2/1/20,0.0,0.0,84017027,Clinton,Illinois,37562,38.60704876,-89.42385254
1054,2/1/20,0.0,0.0,84017029,Coles,Illinois,50621,39.51949084,-88.22358557
1055,2/1/20,0.0,0.0,84017031,Cook,Illinois,5150233,41.84144849,-87.81658794
1056,2/1/20,0.0,0.0,84017033,Crawford,Illinois,18667,39.0032229,-87.75954624
1057,2/1/20,0.0,0.0,84017035,Cumberland,Illinois,10766,39.27432424,-88.2401158
1058,2/1/20,0.0,0.0,84017037,DeKalb,Illinois,104897,41.89373302,-88.76958483
1059,2/1/20,0.0,0.0,84017039,De Witt,Illinois,15638,40.17514519,-88.90959682
1060,2/1/20,0.0,0.0,84017041,Douglas,Illinois,19465,39.76768052,-88.21854195
1061,2/1/20,0.0,0.0,84017043,DuPage,Illinois,922921,41.85116968,-88.08642662
1062,2/1/20,0.0,0.0,84017045,Edgar,Illinois,17161,39.6809186,-87.74759563
1063,2/1/20,0.0,0.0,84017047,Edwards,Illinois,6395,38.41353228,-88.05720863
1064,2/1/20,0.0,0.0,84017049,Effingham,Illinois,34008,39.05935711,-88.58969584
1065,2/1/20,0.0,0.0,84017051,Fayette,Illinois,21336,39.00072038,-89.02452658
1066,2/1/20,0.0,0.0,84017053,Ford,Illinois,12961,40.59706922,-88.22350769
1067,2/1/20,0.0,0.0,84017055,Franklin,Illinois,38469,37.99189086,-88.92567818
1068,2/1/20,0.0,0.0,84017057,Fulton,Illinois,34340,40.47289135,-90.20862357
1069,2/1/20,0.0,0.0,84017059,Gallatin,Illinois,4828,37.76430935,-88.22953869
1070,2/1/20,0.0,0.0,84017061,Greene,Illinois,12969,39.35907414,-90.388865
1071,2/1/20,0.0,0.0,84017063,Grundy,Illinois,51054,41.28569601,-88.41905692
1072,2/1/20,0.0,0.0,84017065,Hamilton,Illinois,8116,38.08163641,-88.53883373
1073,2/1/20,0.0,0.0,84017067,Hancock,Illinois,17708,40.40423981,-91.16313899
1074,2/1/20,0.0,0.0,84017069,Hardin,Illinois,3821,37.51810645,-88.26873022
1075,2/1/20,0.0,0.0,84017071,Henderson,Illinois,6646,40.81908672,-90.92491462
1076,2/1/20,0.0,0.0,84017073,Henry,Illinois,48913,41.3533994,-90.13296166
1077,2/1/20,0.0,0.0,84017075,Iroquois,Illinois,27114,40.74717633,-87.82466784
1078,2/1/20,0.0,0.0,84017077,Jackson,Illinois,56750,37.78595185,-89.38232563
1079,2/1/20,0.0,0.0,84017079,Jasper,Illinois,9610,39.01054275,-88.15437049
1080,2/1/20,0.0,0.0,84017081,Jefferson,Illinois,37684,38.29980057,-88.9240025
1081,2/1/20,0.0,0.0,84017083,Jersey,Illinois,21773,39.08869046,-90.35393073
1082,2/1/20,0.0,0.0,84017085,Jo Daviess,Illinois,21235,42.36542373,-90.21094405
1083,2/1/20,0.0,0.0,84017087,Johnson,Illinois,12417,37.45939802,-88.88165419
1084,2/1/20,0.0,0.0,84017089,Kane,Illinois,532403,41.93842729,-88.42861412
1085,2/1/20,0.0,0.0,84017091,Kankakee,Illinois,109862,41.13746989,-87.86205334
1086,2/1/20,0.0,0.0,84017093,Kendall,Illinois,128990,41.59081014,-88.42869583
1087,2/1/20,0.0,0.0,84017095,Knox,Illinois,49699,40.93148779,-90.21330340000002
1088,2/1/20,0.0,0.0,84017097,Lake,Illinois,696535,42.3224907,-88.00367925
1089,2/1/20,0.0,0.0,84017099,LaSalle,Illinois,108669,41.34426129999999,-88.88633881
1090,2/1/20,0.0,0.0,84017101,Lawrence,Illinois,15678,38.71987914,-87.72884035
1091,2/1/20,0.0,0.0,84017103,Lee,Illinois,34096,41.74583951,-89.29977132
1092,2/1/20,0.0,0.0,84017105,Livingston,Illinois,35648,40.89188292,-88.55784752
1093,2/1/20,0.0,0.0,84017107,Logan,Illinois,28618,40.12581572,-89.36638784
1094,2/1/20,0.0,0.0,84017109,McDonough,Illinois,29682,40.45674722,-90.67775541
1095,2/1/20,0.0,0.0,84017111,McHenry,Illinois,307774,42.32451172,-88.45248227
1096,2/1/20,0.0,0.0,84017113,McLean,Illinois,171517,40.48996987,-88.84621113
1097,2/1/20,0.0,0.0,84017115,Macon,Illinois,104009,39.86064913,-88.96342505
1098,2/1/20,0.0,0.0,84017117,Macoupin,Illinois,44926,39.26119767,-89.92424028
1099,2/1/20,0.0,0.0,84017119,Madison,Illinois,262966,38.83042506,-89.90422563
1100,2/1/20,0.0,0.0,84017121,Marion,Illinois,37205,38.64963204,-88.91899208
1101,2/1/20,0.0,0.0,84017123,Marshall,Illinois,11438,41.0327901,-89.34510444
1102,2/1/20,0.0,0.0,84017125,Mason,Illinois,13359,40.23917274,-89.91824452
1103,2/1/20,0.0,0.0,84017127,Massac,Illinois,13772,37.22078441,-88.71036614
1104,2/1/20,0.0,0.0,84017129,Menard,Illinois,12196,40.02742725,-89.80246001
1105,2/1/20,0.0,0.0,84017131,Mercer,Illinois,15437,41.20596782,-90.74290052
1106,2/1/20,0.0,0.0,84017133,Monroe,Illinois,34637,38.27594376,-90.17761038
1107,2/1/20,0.0,0.0,84017135,Montgomery,Illinois,28414,39.23198845,-89.47809254
1108,2/1/20,0.0,0.0,84017137,Morgan,Illinois,33658,39.71654544,-90.20255104
1109,2/1/20,0.0,0.0,84017139,Moultrie,Illinois,14501,39.64187451,-88.62099969
1110,2/1/20,0.0,0.0,84017141,Ogle,Illinois,50643,42.04165196,-89.32184679
1111,2/1/20,0.0,0.0,84017143,Peoria,Illinois,179179,40.78702156,-89.76078901
1112,2/1/20,0.0,0.0,84017145,Perry,Illinois,20916,38.08510853,-89.36856219
1113,2/1/20,0.0,0.0,84017147,Piatt,Illinois,16344,40.01360584,-88.59319339
1114,2/1/20,0.0,0.0,84017149,Pike,Illinois,15561,39.62265059,-90.8877017
1115,2/1/20,0.0,0.0,84017151,Pope,Illinois,4177,37.41391284,-88.56152109
1116,2/1/20,0.0,0.0,84017153,Pulaski,Illinois,5335,37.22631423,-89.13085001
1117,2/1/20,0.0,0.0,84017155,Putnam,Illinois,5739,41.2013541,-89.2869272
1118,2/1/20,0.0,0.0,84017157,Randolph,Illinois,31782,38.05095369,-89.82512254
1119,2/1/20,0.0,0.0,84017159,Richland,Illinois,15513,38.71240969,-88.08475366
1120,2/1/20,0.0,0.0,84017161,Rock Island,Illinois,141879,41.46613806,-90.57042164
1121,2/1/20,0.0,0.0,84017163,St. Clair,Illinois,259686,38.46996033,-89.93063427
1122,2/1/20,0.0,0.0,84017165,Saline,Illinois,23491,37.75332999,-88.54119706
1123,2/1/20,0.0,0.0,84017167,Sangamon,Illinois,194672,39.75836914,-89.65872023
1124,2/1/20,0.0,0.0,84017169,Schuyler,Illinois,6768,40.157179799999994,-90.61114163
1125,2/1/20,0.0,0.0,84017171,Scott,Illinois,4951,39.642916899999996,-90.47814431
1126,2/1/20,0.0,0.0,84017173,Shelby,Illinois,21634,39.39133527,-88.80611122
1127,2/1/20,0.0,0.0,84017175,Stark,Illinois,5342,41.09309773,-89.79745866
1128,2/1/20,0.0,0.0,84017177,Stephenson,Illinois,44498,42.35129217,-89.662598
1129,2/1/20,0.0,0.0,84017179,Tazewell,Illinois,131803,40.50716185,-89.51404662
1130,2/1/20,0.0,0.0,84017181,Union,Illinois,16653,37.47119609,-89.25548938
1131,2/1/20,0.0,0.0,84017183,Vermilion,Illinois,75758,40.18417171,-87.73384359
1132,2/1/20,0.0,0.0,84017185,Wabash,Illinois,11520,38.44272901,-87.84922065
1133,2/1/20,0.0,0.0,84017187,Warren,Illinois,16844,40.84925021,-90.6147432
1134,2/1/20,0.0,0.0,84017189,Washington,Illinois,13887,38.35309213,-89.40982703
1135,2/1/20,0.0,0.0,84017191,Wayne,Illinois,16215,38.42955355,-88.42586459
1136,2/1/20,0.0,0.0,84017193,White,Illinois,13537,38.08706198,-88.17657461
1137,2/1/20,0.0,0.0,84017195,Whiteside,Illinois,55175,41.75509713,-89.91556058
1138,2/1/20,0.0,0.0,84017197,Will,Illinois,690743,41.44619267,-87.97862712
1139,2/1/20,0.0,0.0,84017199,Williamson,Illinois,66597,37.73033511,-88.92994027
1140,2/1/20,0.0,0.0,84017201,Winnebago,Illinois,282572,42.33641854,-89.16085327
1141,2/1/20,0.0,0.0,84017203,Woodford,Illinois,38459,40.78579374,-89.20973757
1144,2/2/20,0.0,0.0,84017001,Adams,Illinois,65435,39.98815591,-91.18786813
1145,2/2/20,0.0,0.0,84017003,Alexander,Illinois,5761,37.18049267,-89.32910838
1146,2/2/20,0.0,0.0,84017005,Bond,Illinois,16426,38.88829622,-89.43534887
1147,2/2/20,0.0,0.0,84017007,Boone,Illinois,53544,42.32359279,-88.82345779
1148,2/2/20,0.0,0.0,84017009,Brown,Illinois,6578,39.96209138,-90.75068024
1149,2/2/20,0.0,0.0,84017011,Bureau,Illinois,32628,41.40385234,-89.5283051
1150,2/2/20,0.0,0.0,84017013,Calhoun,Illinois,4739,39.16840183,-90.66330078
1151,2/2/20,0.0,0.0,84017015,Carroll,Illinois,14305,42.06823429,-89.93395545
1152,2/2/20,0.0,0.0,84017017,Cass,Illinois,12147,39.96991073,-90.24734436
1153,2/2/20,0.0,0.0,84017019,Champaign,Illinois,209689,40.13919438,-88.20046615
1154,2/2/20,0.0,0.0,84017021,Christian,Illinois,32304,39.54581621,-89.27780482
1155,2/2/20,0.0,0.0,84017023,Clark,Illinois,15441,39.33425789,-87.78705622
1156,2/2/20,0.0,0.0,84017025,Clay,Illinois,13184,38.75388572,-88.48914513
1157,2/2/20,0.0,0.0,84017027,Clinton,Illinois,37562,38.60704876,-89.42385254
1158,2/2/20,0.0,0.0,84017029,Coles,Illinois,50621,39.51949084,-88.22358557
1159,2/2/20,0.0,0.0,84017031,Cook,Illinois,5150233,41.84144849,-87.81658794
1160,2/2/20,0.0,0.0,84017033,Crawford,Illinois,18667,39.0032229,-87.75954624
1161,2/2/20,0.0,0.0,84017035,Cumberland,Illinois,10766,39.27432424,-88.2401158
1162,2/2/20,0.0,0.0,84017037,DeKalb,Illinois,104897,41.89373302,-88.76958483
1163,2/2/20,0.0,0.0,84017039,De Witt,Illinois,15638,40.17514519,-88.90959682
1164,2/2/20,0.0,0.0,84017041,Douglas,Illinois,19465,39.76768052,-88.21854195
1165,2/2/20,0.0,0.0,84017043,DuPage,Illinois,922921,41.85116968,-88.08642662
1166,2/2/20,0.0,0.0,84017045,Edgar,Illinois,17161,39.6809186,-87.74759563
1167,2/2/20,0.0,0.0,84017047,Edwards,Illinois,6395,38.41353228,-88.05720863
1168,2/2/20,0.0,0.0,84017049,Effingham,Illinois,34008,39.05935711,-88.58969584
1169,2/2/20,0.0,0.0,84017051,Fayette,Illinois,21336,39.00072038,-89.02452658
1170,2/2/20,0.0,0.0,84017053,Ford,Illinois,12961,40.59706922,-88.22350769
1171,2/2/20,0.0,0.0,84017055,Franklin,Illinois,38469,37.99189086,-88.92567818
1172,2/2/20,0.0,0.0,84017057,Fulton,Illinois,34340,40.47289135,-90.20862357
1173,2/2/20,0.0,0.0,84017059,Gallatin,Illinois,4828,37.76430935,-88.22953869
1174,2/2/20,0.0,0.0,84017061,Greene,Illinois,12969,39.35907414,-90.388865
1175,2/2/20,0.0,0.0,84017063,Grundy,Illinois,51054,41.28569601,-88.41905692
1176,2/2/20,0.0,0.0,84017065,Hamilton,Illinois,8116,38.08163641,-88.53883373
1177,2/2/20,0.0,0.0,84017067,Hancock,Illinois,17708,40.40423981,-91.16313899
1178,2/2/20,0.0,0.0,84017069,Hardin,Illinois,3821,37.51810645,-88.26873022
1179,2/2/20,0.0,0.0,84017071,Henderson,Illinois,6646,40.81908672,-90.92491462
1180,2/2/20,0.0,0.0,84017073,Henry,Illinois,48913,41.3533994,-90.13296166
1181,2/2/20,0.0,0.0,84017075,Iroquois,Illinois,27114,40.74717633,-87.82466784
1182,2/2/20,0.0,0.0,84017077,Jackson,Illinois,56750,37.78595185,-89.38232563
1183,2/2/20,0.0,0.0,84017079,Jasper,Illinois,9610,39.01054275,-88.15437049
1184,2/2/20,0.0,0.0,84017081,Jefferson,Illinois,37684,38.29980057,-88.9240025
1185,2/2/20,0.0,0.0,84017083,Jersey,Illinois,21773,39.08869046,-90.35393073
1186,2/2/20,0.0,0.0,84017085,Jo Daviess,Illinois,21235,42.36542373,-90.21094405
1187,2/2/20,0.0,0.0,84017087,Johnson,Illinois,12417,37.45939802,-88.88165419
1188,2/2/20,0.0,0.0,84017089,Kane,Illinois,532403,41.93842729,-88.42861412
1189,2/2/20,0.0,0.0,84017091,Kankakee,Illinois,109862,41.13746989,-87.86205334
1190,2/2/20,0.0,0.0,84017093,Kendall,Illinois,128990,41.59081014,-88.42869583
1191,2/2/20,0.0,0.0,84017095,Knox,Illinois,49699,40.93148779,-90.21330340000002
1192,2/2/20,0.0,0.0,84017097,Lake,Illinois,696535,42.3224907,-88.00367925
1193,2/2/20,0.0,0.0,84017099,LaSalle,Illinois,108669,41.34426129999999,-88.88633881
1194,2/2/20,0.0,0.0,84017101,Lawrence,Illinois,15678,38.71987914,-87.72884035
1195,2/2/20,0.0,0.0,84017103,Lee,Illinois,34096,41.74583951,-89.29977132
1196,2/2/20,0.0,0.0,84017105,Livingston,Illinois,35648,40.89188292,-88.55784752
1197,2/2/20,0.0,0.0,84017107,Logan,Illinois,28618,40.12581572,-89.36638784
1198,2/2/20,0.0,0.0,84017109,McDonough,Illinois,29682,40.45674722,-90.67775541
1199,2/2/20,0.0,0.0,84017111,McHenry,Illinois,307774,42.32451172,-88.45248227
1200,2/2/20,0.0,0.0,84017113,McLean,Illinois,171517,40.48996987,-88.84621113
1201,2/2/20,0.0,0.0,84017115,Macon,Illinois,104009,39.86064913,-88.96342505
1202,2/2/20,0.0,0.0,84017117,Macoupin,Illinois,44926,39.26119767,-89.92424028
1203,2/2/20,0.0,0.0,84017119,Madison,Illinois,262966,38.83042506,-89.90422563
1204,2/2/20,0.0,0.0,84017121,Marion,Illinois,37205,38.64963204,-88.91899208
1205,2/2/20,0.0,0.0,84017123,Marshall,Illinois,11438,41.0327901,-89.34510444
1206,2/2/20,0.0,0.0,84017125,Mason,Illinois,13359,40.23917274,-89.91824452
1207,2/2/20,0.0,0.0,84017127,Massac,Illinois,13772,37.22078441,-88.71036614
1208,2/2/20,0.0,0.0,84017129,Menard,Illinois,12196,40.02742725,-89.80246001
1209,2/2/20,0.0,0.0,84017131,Mercer,Illinois,15437,41.20596782,-90.74290052
1210,2/2/20,0.0,0.0,84017133,Monroe,Illinois,34637,38.27594376,-90.17761038
1211,2/2/20,0.0,0.0,84017135,Montgomery,Illinois,28414,39.23198845,-89.47809254
1212,2/2/20,0.0,0.0,84017137,Morgan,Illinois,33658,39.71654544,-90.20255104
1213,2/2/20,0.0,0.0,84017139,Moultrie,Illinois,14501,39.64187451,-88.62099969
1214,2/2/20,0.0,0.0,84017141,Ogle,Illinois,50643,42.04165196,-89.32184679
1215,2/2/20,0.0,0.0,84017143,Peoria,Illinois,179179,40.78702156,-89.76078901
1216,2/2/20,0.0,0.0,84017145,Perry,Illinois,20916,38.08510853,-89.36856219
1217,2/2/20,0.0,0.0,84017147,Piatt,Illinois,16344,40.01360584,-88.59319339
1218,2/2/20,0.0,0.0,84017149,Pike,Illinois,15561,39.62265059,-90.8877017
1219,2/2/20,0.0,0.0,84017151,Pope,Illinois,4177,37.41391284,-88.56152109
1220,2/2/20,0.0,0.0,84017153,Pulaski,Illinois,5335,37.22631423,-89.13085001
1221,2/2/20,0.0,0.0,84017155,Putnam,Illinois,5739,41.2013541,-89.2869272
1222,2/2/20,0.0,0.0,84017157,Randolph,Illinois,31782,38.05095369,-89.82512254
1223,2/2/20,0.0,0.0,84017159,Richland,Illinois,15513,38.71240969,-88.08475366
1224,2/2/20,0.0,0.0,84017161,Rock Island,Illinois,141879,41.46613806,-90.57042164
1225,2/2/20,0.0,0.0,84017163,St. Clair,Illinois,259686,38.46996033,-89.93063427
1226,2/2/20,0.0,0.0,84017165,Saline,Illinois,23491,37.75332999,-88.54119706
1227,2/2/20,0.0,0.0,84017167,Sangamon,Illinois,194672,39.75836914,-89.65872023
1228,2/2/20,0.0,0.0,84017169,Schuyler,Illinois,6768,40.157179799999994,-90.61114163
1229,2/2/20,0.0,0.0,84017171,Scott,Illinois,4951,39.642916899999996,-90.47814431
1230,2/2/20,0.0,0.0,84017173,Shelby,Illinois,21634,39.39133527,-88.80611122
1231,2/2/20,0.0,0.0,84017175,Stark,Illinois,5342,41.09309773,-89.79745866
1232,2/2/20,0.0,0.0,84017177,Stephenson,Illinois,44498,42.35129217,-89.662598
1233,2/2/20,0.0,0.0,84017179,Tazewell,Illinois,131803,40.50716185,-89.51404662
1234,2/2/20,0.0,0.0,84017181,Union,Illinois,16653,37.47119609,-89.25548938
1235,2/2/20,0.0,0.0,84017183,Vermilion,Illinois,75758,40.18417171,-87.73384359
1236,2/2/20,0.0,0.0,84017185,Wabash,Illinois,11520,38.44272901,-87.84922065
1237,2/2/20,0.0,0.0,84017187,Warren,Illinois,16844,40.84925021,-90.6147432
1238,2/2/20,0.0,0.0,84017189,Washington,Illinois,13887,38.35309213,-89.40982703
1239,2/2/20,0.0,0.0,84017191,Wayne,Illinois,16215,38.42955355,-88.42586459
1240,2/2/20,0.0,0.0,84017193,White,Illinois,13537,38.08706198,-88.17657461
1241,2/2/20,0.0,0.0,84017195,Whiteside,Illinois,55175,41.75509713,-89.91556058
1242,2/2/20,0.0,0.0,84017197,Will,Illinois,690743,41.44619267,-87.97862712
1243,2/2/20,0.0,0.0,84017199,Williamson,Illinois,66597,37.73033511,-88.92994027
1244,2/2/20,0.0,0.0,84017201,Winnebago,Illinois,282572,42.33641854,-89.16085327
1245,2/2/20,0.0,0.0,84017203,Woodford,Illinois,38459,40.78579374,-89.20973757
1248,2/3/20,0.0,0.0,84017001,Adams,Illinois,65435,39.98815591,-91.18786813
1249,2/3/20,0.0,0.0,84017003,Alexander,Illinois,5761,37.18049267,-89.32910838
1250,2/3/20,0.0,0.0,84017005,Bond,Illinois,16426,38.88829622,-89.43534887
1251,2/3/20,0.0,0.0,84017007,Boone,Illinois,53544,42.32359279,-88.82345779
1252,2/3/20,0.0,0.0,84017009,Brown,Illinois,6578,39.96209138,-90.75068024
1253,2/3/20,0.0,0.0,84017011,Bureau,Illinois,32628,41.40385234,-89.5283051
1254,2/3/20,0.0,0.0,84017013,Calhoun,Illinois,4739,39.16840183,-90.66330078
1255,2/3/20,0.0,0.0,84017015,Carroll,Illinois,14305,42.06823429,-89.93395545
1256,2/3/20,0.0,0.0,84017017,Cass,Illinois,12147,39.96991073,-90.24734436
1257,2/3/20,0.0,0.0,84017019,Champaign,Illinois,209689,40.13919438,-88.20046615
1258,2/3/20,0.0,0.0,84017021,Christian,Illinois,32304,39.54581621,-89.27780482
1259,2/3/20,0.0,0.0,84017023,Clark,Illinois,15441,39.33425789,-87.78705622
1260,2/3/20,0.0,0.0,84017025,Clay,Illinois,13184,38.75388572,-88.48914513
1261,2/3/20,0.0,0.0,84017027,Clinton,Illinois,37562,38.60704876,-89.42385254
1262,2/3/20,0.0,0.0,84017029,Coles,Illinois,50621,39.51949084,-88.22358557
1263,2/3/20,0.0,0.0,84017031,Cook,Illinois,5150233,41.84144849,-87.81658794
1264,2/3/20,0.0,0.0,84017033,Crawford,Illinois,18667,39.0032229,-87.75954624
1265,2/3/20,0.0,0.0,84017035,Cumberland,Illinois,10766,39.27432424,-88.2401158
1266,2/3/20,0.0,0.0,84017037,DeKalb,Illinois,104897,41.89373302,-88.76958483
1267,2/3/20,0.0,0.0,84017039,De Witt,Illinois,15638,40.17514519,-88.90959682
1268,2/3/20,0.0,0.0,84017041,Douglas,Illinois,19465,39.76768052,-88.21854195
1269,2/3/20,0.0,0.0,84017043,DuPage,Illinois,922921,41.85116968,-88.08642662
1270,2/3/20,0.0,0.0,84017045,Edgar,Illinois,17161,39.6809186,-87.74759563
1271,2/3/20,0.0,0.0,84017047,Edwards,Illinois,6395,38.41353228,-88.05720863
1272,2/3/20,0.0,0.0,84017049,Effingham,Illinois,34008,39.05935711,-88.58969584
1273,2/3/20,0.0,0.0,84017051,Fayette,Illinois,21336,39.00072038,-89.02452658
1274,2/3/20,0.0,0.0,84017053,Ford,Illinois,12961,40.59706922,-88.22350769
1275,2/3/20,0.0,0.0,84017055,Franklin,Illinois,38469,37.99189086,-88.92567818
1276,2/3/20,0.0,0.0,84017057,Fulton,Illinois,34340,40.47289135,-90.20862357
1277,2/3/20,0.0,0.0,84017059,Gallatin,Illinois,4828,37.76430935,-88.22953869
1278,2/3/20,0.0,0.0,84017061,Greene,Illinois,12969,39.35907414,-90.388865
1279,2/3/20,0.0,0.0,84017063,Grundy,Illinois,51054,41.28569601,-88.41905692
1280,2/3/20,0.0,0.0,84017065,Hamilton,Illinois,8116,38.08163641,-88.53883373
1281,2/3/20,0.0,0.0,84017067,Hancock,Illinois,17708,40.40423981,-91.16313899
1282,2/3/20,0.0,0.0,84017069,Hardin,Illinois,3821,37.51810645,-88.26873022
1283,2/3/20,0.0,0.0,84017071,Henderson,Illinois,6646,40.81908672,-90.92491462
1284,2/3/20,0.0,0.0,84017073,Henry,Illinois,48913,41.3533994,-90.13296166
1285,2/3/20,0.0,0.0,84017075,Iroquois,Illinois,27114,40.74717633,-87.82466784
1286,2/3/20,0.0,0.0,84017077,Jackson,Illinois,56750,37.78595185,-89.38232563
1287,2/3/20,0.0,0.0,84017079,Jasper,Illinois,9610,39.01054275,-88.15437049
1288,2/3/20,0.0,0.0,84017081,Jefferson,Illinois,37684,38.29980057,-88.9240025
1289,2/3/20,0.0,0.0,84017083,Jersey,Illinois,21773,39.08869046,-90.35393073
1290,2/3/20,0.0,0.0,84017085,Jo Daviess,Illinois,21235,42.36542373,-90.21094405
1291,2/3/20,0.0,0.0,84017087,Johnson,Illinois,12417,37.45939802,-88.88165419
1292,2/3/20,0.0,0.0,84017089,Kane,Illinois,532403,41.93842729,-88.42861412
1293,2/3/20,0.0,0.0,84017091,Kankakee,Illinois,109862,41.13746989,-87.86205334
1294,2/3/20,0.0,0.0,84017093,Kendall,Illinois,128990,41.59081014,-88.42869583
1295,2/3/20,0.0,0.0,84017095,Knox,Illinois,49699,40.93148779,-90.21330340000002
1296,2/3/20,0.0,0.0,84017097,Lake,Illinois,696535,42.3224907,-88.00367925
1297,2/3/20,0.0,0.0,84017099,LaSalle,Illinois,108669,41.34426129999999,-88.88633881
1298,2/3/20,0.0,0.0,84017101,Lawrence,Illinois,15678,38.71987914,-87.72884035
1299,2/3/20,0.0,0.0,84017103,Lee,Illinois,34096,41.74583951,-89.29977132
1300,2/3/20,0.0,0.0,84017105,Livingston,Illinois,35648,40.89188292,-88.55784752
1301,2/3/20,0.0,0.0,84017107,Logan,Illinois,28618,40.12581572,-89.36638784
1302,2/3/20,0.0,0.0,84017109,McDonough,Illinois,29682,40.45674722,-90.67775541
1303,2/3/20,0.0,0.0,84017111,McHenry,Illinois,307774,42.32451172,-88.45248227
1304,2/3/20,0.0,0.0,84017113,McLean,Illinois,171517,40.48996987,-88.84621113
1305,2/3/20,0.0,0.0,84017115,Macon,Illinois,104009,39.86064913,-88.96342505
1306,2/3/20,0.0,0.0,84017117,Macoupin,Illinois,44926,39.26119767,-89.92424028
1307,2/3/20,0.0,0.0,84017119,Madison,Illinois,262966,38.83042506,-89.90422563
1308,2/3/20,0.0,0.0,84017121,Marion,Illinois,37205,38.64963204,-88.91899208
1309,2/3/20,0.0,0.0,84017123,Marshall,Illinois,11438,41.0327901,-89.34510444
1310,2/3/20,0.0,0.0,84017125,Mason,Illinois,13359,40.23917274,-89.91824452
1311,2/3/20,0.0,0.0,84017127,Massac,Illinois,13772,37.22078441,-88.71036614
1312,2/3/20,0.0,0.0,84017129,Menard,Illinois,12196,40.02742725,-89.80246001
1313,2/3/20,0.0,0.0,84017131,Mercer,Illinois,15437,41.20596782,-90.74290052
1314,2/3/20,0.0,0.0,84017133,Monroe,Illinois,34637,38.27594376,-90.17761038
1315,2/3/20,0.0,0.0,84017135,Montgomery,Illinois,28414,39.23198845,-89.47809254
1316,2/3/20,0.0,0.0,84017137,Morgan,Illinois,33658,39.71654544,-90.20255104
1317,2/3/20,0.0,0.0,84017139,Moultrie,Illinois,14501,39.64187451,-88.62099969
1318,2/3/20,0.0,0.0,84017141,Ogle,Illinois,50643,42.04165196,-89.32184679
1319,2/3/20,0.0,0.0,84017143,Peoria,Illinois,179179,40.78702156,-89.76078901
1320,2/3/20,0.0,0.0,84017145,Perry,Illinois,20916,38.08510853,-89.36856219
1321,2/3/20,0.0,0.0,84017147,Piatt,Illinois,16344,40.01360584,-88.59319339
1322,2/3/20,0.0,0.0,84017149,Pike,Illinois,15561,39.62265059,-90.8877017
1323,2/3/20,0.0,0.0,84017151,Pope,Illinois,4177,37.41391284,-88.56152109
1324,2/3/20,0.0,0.0,84017153,Pulaski,Illinois,5335,37.22631423,-89.13085001
